[
  {
    "stop_id": 7168,
    "stop_name": "1 Decembrie",
    "stop_desc": "Str. Victoriei, Ilfov",
    "stop_lat": 44.284054,
    "stop_lon": 26.053679,
    "location_type": "",
    "platform_code": "",
    "parent_station": "",
    "level_id": ""
  },
  {
    "stop_id": 7685,
    "stop_name": "1 Decembrie",
    "stop_desc": "Str. Victoriei, Ilfov",
    "stop_lat": 44.284283,
    "stop_lon": 26.053696,
    "location_type": "",
    "platform_code": "",
    "parent_station": "",
    "level_id": ""
  },
  {
    "stop_id": "PV1_5393",
    "stop_name": "1 Decembrie",
    "stop_desc": "",
    "stop_lat": 44.549335,
    "stop_lon": 26.132105,
    "location_type": "",
    "platform_code": "",
    "parent_station": "",
    "level_id": ""
  },
  {
    "stop_id": "PV1_5394",
    "stop_name": "1 Decembrie",
    "stop_desc": "",
    "stop_lat": 44.54937,
    "stop_lon": 26.131472,
    "location_type": "",
    "platform_code": "",
    "parent_station": "",
    "level_id": ""
  },
  {
    "stop_id": "PV2_5395",
    "stop_name": "1 Decembrie",
    "stop_desc": "",
    "stop_lat": 44.471283,
    "stop_lon": 25.968885,
    "location_type": "",
    "platform_code": "",
    "parent_station": "",
    "level_id": ""
  },
  {
    "stop_id": "PV2_5396",
    "stop_name": "1 Decembrie",
    "stop_desc": "",
    "stop_lat": 44.47142,
    "stop_lon": 25.969751,
    "location_type": "",
    "platform_code": "",
    "parent_station": "",
    "level_id": ""
  },
  {
    "stop_id": 14739,
    "stop_name": "1 Decembrie 1918",
    "stop_desc": "",
    "stop_lat": 44.41059,
    "stop_lon": 26.17298,
    "location_type": 1,
    "platform_code": "",
    "parent_station": "",
    "level_id": ""
  },
  {
    "stop_id": 8667,
    "stop_name": "1 Decembrie 1918",
    "stop_desc": "DJ 601A, Ilfov",
    "stop_lat": 44.463207,
    "stop_lon": 25.939009,
    "location_type": "",
    "platform_code": "",
    "parent_station": "",
    "level_id": ""
  },
  {
    "stop_id": 8670,
    "stop_name": "1 Decembrie 1918",
    "stop_desc": "DJ 601A, Ilfov",
    "stop_lat": 44.46327,
    "stop_lon": 25.93847,
    "location_type": "",
    "platform_code": "",
    "parent_station": "",
    "level_id": ""
  },
  {
    "stop_id": "PV1_5142",
    "stop_name": "1 Decembrie 1918",
    "stop_desc": "",
    "stop_lat": 44.39995,
    "stop_lon": 26.317715,
    "location_type": "",
    "platform_code": "",
    "parent_station": "",
    "level_id": ""
  },
  {
    "stop_id": "PV1_5143",
    "stop_name": "1 Decembrie 1918",
    "stop_desc": "",
    "stop_lat": 44.399765,
    "stop_lon": 26.317905,
    "location_type": "",
    "platform_code": "",
    "parent_station": "",
    "level_id": ""
  },
  {
    "stop_id": "PV1_5153",
    "stop_name": "1 Decembrie 1918",
    "stop_desc": "",
    "stop_lat": 44.30312,
    "stop_lon": 26.013725,
    "location_type": "",
    "platform_code": "",
    "parent_station": "",
    "level_id": ""
  },
  {
    "stop_id": "PV1_5154",
    "stop_name": "1 Decembrie 1918",
    "stop_desc": "",
    "stop_lat": 44.30286,
    "stop_lon": 26.012758,
    "location_type": "",
    "platform_code": "",
    "parent_station": "",
    "level_id": ""
  },
  {
    "stop_id": "14739R",
    "stop_name": "1 Decembrie 1918",
    "stop_desc": "",
    "stop_lat": 44.41059,
    "stop_lon": 26.17298,
    "location_type": "",
    "platform_code": 2,
    "parent_station": 14739,
    "level_id": 0
  },
  {
    "stop_id": "14739T",
    "stop_name": "1 Decembrie 1918",
    "stop_desc": "",
    "stop_lat": 44.41059,
    "stop_lon": 26.17298,
    "location_type": "",
    "platform_code": 1,
    "parent_station": 14739,
    "level_id": 0
  },
  {
    "stop_id": "PV2_5144",
    "stop_name": "1 Iunie",
    "stop_desc": "",
    "stop_lat": 44.533222,
    "stop_lon": 25.991196,
    "location_type": "",
    "platform_code": "",
    "parent_station": "",
    "level_id": ""
  },
  {
    "stop_id": "PV2_5145",
    "stop_name": "1 Iunie",
    "stop_desc": "",
    "stop_lat": 44.532898,
    "stop_lon": 25.992022,
    "location_type": "",
    "platform_code": "",
    "parent_station": "",
    "level_id": ""
  },
  {
    "stop_id": 14745,
    "stop_name": "1 Mai",
    "stop_desc": "",
    "stop_lat": 44.47112,
    "stop_lon": 26.0504,
    "location_type": 1,
    "platform_code": "",
    "parent_station": "",
    "level_id": ""
  },
  {
    "stop_id": 3653,
    "stop_name": "1 Mai",
    "stop_desc": "Bd. 1 Mai, Bucuresti",
    "stop_lat": 44.41778,
    "stop_lon": 26.035534,
    "location_type": "",
    "platform_code": "",
    "parent_station": "",
    "level_id": ""
  },
  {
    "stop_id": 3654,
    "stop_name": "1 Mai",
    "stop_desc": "Bd. 1 Mai, Bucuresti",
    "stop_lat": 44.419407,
    "stop_lon": 26.047092,
    "location_type": "",
    "platform_code": "",
    "parent_station": "",
    "level_id": ""
  },
  {
    "stop_id": "14745R",
    "stop_name": "1 Mai",
    "stop_desc": "",
    "stop_lat": 44.47112,
    "stop_lon": 26.0504,
    "location_type": "",
    "platform_code": 2,
    "parent_station": 14745,
    "level_id": 0
  },
  {
    "stop_id": "14745T",
    "stop_name": "1 Mai",
    "stop_desc": "",
    "stop_lat": 44.47112,
    "stop_lon": 26.0504,
    "location_type": "",
    "platform_code": 1,
    "parent_station": 14745,
    "level_id": 0
  },
  {
    "stop_id": 8682,
    "stop_name": "1 Martie",
    "stop_desc": "DJ 602, Ilfov",
    "stop_lat": 44.422333,
    "stop_lon": 25.878494,
    "location_type": "",
    "platform_code": "",
    "parent_station": "",
    "level_id": ""
  },
  {
    "stop_id": 8685,
    "stop_name": "1 Martie",
    "stop_desc": "DJ 602, Ilfov",
    "stop_lat": 44.42316,
    "stop_lon": 25.878473,
    "location_type": "",
    "platform_code": "",
    "parent_station": "",
    "level_id": ""
  },
  {
    "stop_id": 3305,
    "stop_name": "11 Iunie",
    "stop_desc": "Bd. Regina Maria, Bucuresti",
    "stop_lat": 44.42385,
    "stop_lon": 26.09503,
    "location_type": "",
    "platform_code": "",
    "parent_station": "",
    "level_id": ""
  },
  {
    "stop_id": 3307,
    "stop_name": "11 Iunie",
    "stop_desc": "Bd. Regina Maria, Bucuresti",
    "stop_lat": 44.424282,
    "stop_lon": 26.095793,
    "location_type": "",
    "platform_code": "",
    "parent_station": "",
    "level_id": ""
  },
  {
    "stop_id": 7261,
    "stop_name": "11 Iunie",
    "stop_desc": "Bd. Regina Maria, Bucuresti",
    "stop_lat": 44.424507,
    "stop_lon": 26.09613,
    "location_type": "",
    "platform_code": "",
    "parent_station": "",
    "level_id": ""
  },
  {
    "stop_id": 7393,
    "stop_name": "11 Iunie",
    "stop_desc": "Bd. Regina Maria, Bucuresti",
    "stop_lat": 44.423504,
    "stop_lon": 26.094433,
    "location_type": "",
    "platform_code": "",
    "parent_station": "",
    "level_id": ""
  },
  {
    "stop_id": "PV1_5152",
    "stop_name": "11 Iunie",
    "stop_desc": "",
    "stop_lat": 44.314312,
    "stop_lon": 26.018314,
    "location_type": "",
    "platform_code": "",
    "parent_station": "",
    "level_id": ""
  },
  {
    "stop_id": "PV1_5155",
    "stop_name": "11 Iunie",
    "stop_desc": "",
    "stop_lat": 44.31456,
    "stop_lon": 26.018599,
    "location_type": "",
    "platform_code": "",
    "parent_station": "",
    "level_id": ""
  },
  {
    "stop_id": "PV1_117",
    "stop_name": "23.aug",
    "stop_desc": "",
    "stop_lat": 44.551155,
    "stop_lon": 26.07217,
    "location_type": "",
    "platform_code": "",
    "parent_station": "",
    "level_id": ""
  },
  {
    "stop_id": 6021,
    "stop_name": "A.C.R.",
    "stop_desc": "Str. Atomistilor, Ilfov",
    "stop_lat": 44.349373,
    "stop_lon": 26.029627,
    "location_type": "",
    "platform_code": "",
    "parent_station": "",
    "level_id": ""
  },
  {
    "stop_id": 6107,
    "stop_name": "A.C.R.",
    "stop_desc": "DJ 401A, Ilfov",
    "stop_lat": 44.34825,
    "stop_lon": 26.028276,
    "location_type": "",
    "platform_code": "",
    "parent_station": "",
    "level_id": ""
  },
  {
    "stop_id": 6490,
    "stop_name": "A.C.R.",
    "stop_desc": "DC 19, Ilfov",
    "stop_lat": 44.347897,
    "stop_lon": 26.029016,
    "location_type": "",
    "platform_code": "",
    "parent_station": "",
    "level_id": ""
  },
  {
    "stop_id": 6810,
    "stop_name": "A.N.E.F.S.",
    "stop_desc": "Splaiul Independentei, Bucuresti",
    "stop_lat": 44.43894,
    "stop_lon": 26.06956,
    "location_type": "",
    "platform_code": "",
    "parent_station": "",
    "level_id": ""
  },
  {
    "stop_id": 6304,
    "stop_name": "A.S.E.",
    "stop_desc": "Calea Dorobanti, Bucuresti",
    "stop_lat": 44.4476,
    "stop_lon": 26.099356,
    "location_type": "",
    "platform_code": "",
    "parent_station": "",
    "level_id": ""
  },
  {
    "stop_id": 7183,
    "stop_name": "A.S.E.",
    "stop_desc": "Calea Dorobanti, Bucuresti",
    "stop_lat": 44.44729,
    "stop_lon": 26.099491,
    "location_type": "",
    "platform_code": "",
    "parent_station": "",
    "level_id": ""
  },
  {
    "stop_id": 6702,
    "stop_name": "ADP Sector 1",
    "stop_desc": "Sos. Odai, Bucuresti",
    "stop_lat": 44.5214,
    "stop_lon": 26.02849,
    "location_type": "",
    "platform_code": "",
    "parent_station": "",
    "level_id": ""
  },
  {
    "stop_id": 6706,
    "stop_name": "ADP Sector 1",
    "stop_desc": "Sos. Odai, Bucuresti",
    "stop_lat": 44.521397,
    "stop_lon": 26.0287,
    "location_type": "",
    "platform_code": "",
    "parent_station": "",
    "level_id": ""
  },
  {
    "stop_id": 10768,
    "stop_name": "Abator",
    "stop_desc": "DJ 101B, Ilfov",
    "stop_lat": 44.71976,
    "stop_lon": 26.270397,
    "location_type": "",
    "platform_code": "",
    "parent_station": "",
    "level_id": ""
  },
  {
    "stop_id": 10777,
    "stop_name": "Abator",
    "stop_desc": "DJ 101B, Ilfov",
    "stop_lat": 44.719467,
    "stop_lon": 26.270649,
    "location_type": "",
    "platform_code": "",
    "parent_station": "",
    "level_id": ""
  },
  {
    "stop_id": "PV1_575",
    "stop_name": "Academia De Politie",
    "stop_desc": "",
    "stop_lat": 44.51696,
    "stop_lon": 26.084158,
    "location_type": "",
    "platform_code": "",
    "parent_station": "",
    "level_id": ""
  },
  {
    "stop_id": "PV1_593",
    "stop_name": "Academia De Politie",
    "stop_desc": "",
    "stop_lat": 44.516716,
    "stop_lon": 26.084085,
    "location_type": "",
    "platform_code": "",
    "parent_station": "",
    "level_id": ""
  },
  {
    "stop_id": 7147,
    "stop_name": "Academia de Politie",
    "stop_desc": "Strapungerea Jandarmeriei, Bucuresti",
    "stop_lat": 44.516712,
    "stop_lon": 26.084099,
    "location_type": "",
    "platform_code": "",
    "parent_station": "",
    "level_id": ""
  },
  {
    "stop_id": 99090,
    "stop_name": "Academia militară",
    "stop_desc": "",
    "stop_lat": 44.42988,
    "stop_lon": 26.062666,
    "location_type": 1,
    "platform_code": "",
    "parent_station": "",
    "level_id": ""
  },
  {
    "stop_id": "9909R",
    "stop_name": "Academia militară",
    "stop_desc": "",
    "stop_lat": 44.42988,
    "stop_lon": 26.062666,
    "location_type": "",
    "platform_code": 1,
    "parent_station": 99090,
    "level_id": 0
  },
  {
    "stop_id": "9909T",
    "stop_name": "Academia militară",
    "stop_desc": "",
    "stop_lat": 44.42988,
    "stop_lon": 26.062666,
    "location_type": "",
    "platform_code": 2,
    "parent_station": 99090,
    "level_id": 0
  },
  {
    "stop_id": 99091,
    "stop_name": "Academia militară A",
    "stop_desc": "",
    "stop_lat": 44.42988,
    "stop_lon": 26.062666,
    "location_type": 2,
    "platform_code": "",
    "parent_station": 99090,
    "level_id": 1
  },
  {
    "stop_id": 99092,
    "stop_name": "Academia militară B",
    "stop_desc": "",
    "stop_lat": 44.429825,
    "stop_lon": 26.063063,
    "location_type": 2,
    "platform_code": "",
    "parent_station": 99090,
    "level_id": 1
  },
  {
    "stop_id": 99093,
    "stop_name": "Academia militară C",
    "stop_desc": "",
    "stop_lat": 44.42923,
    "stop_lon": 26.06276,
    "location_type": 2,
    "platform_code": "",
    "parent_station": 99090,
    "level_id": 1
  },
  {
    "stop_id": 99094,
    "stop_name": "Academia militară D",
    "stop_desc": "",
    "stop_lat": 44.42892,
    "stop_lon": 26.062138,
    "location_type": 2,
    "platform_code": "",
    "parent_station": 99090,
    "level_id": 1
  },
  {
    "stop_id": 8992,
    "stop_name": "Academiei",
    "stop_desc": "DJ101, Ilfov",
    "stop_lat": 44.63203,
    "stop_lon": 26.1788,
    "location_type": "",
    "platform_code": "",
    "parent_station": "",
    "level_id": ""
  },
  {
    "stop_id": 9003,
    "stop_name": "Academiei",
    "stop_desc": "DJ101, Ilfov",
    "stop_lat": 44.631996,
    "stop_lon": 26.178513,
    "location_type": "",
    "platform_code": "",
    "parent_station": "",
    "level_id": ""
  },
  {
    "stop_id": 6474,
    "stop_name": "Actiunii",
    "stop_desc": "Str. Actiunii, Bucuresti",
    "stop_lat": 44.37,
    "stop_lon": 26.103605,
    "location_type": "",
    "platform_code": "",
    "parent_station": "",
    "level_id": ""
  },
  {
    "stop_id": 12320,
    "stop_name": "Acvila",
    "stop_desc": "Str. Apeductului",
    "stop_lat": 44.447475,
    "stop_lon": 25.9954,
    "location_type": "",
    "platform_code": "",
    "parent_station": "",
    "level_id": ""
  },
  {
    "stop_id": 3100,
    "stop_name": "Adesgo",
    "stop_desc": "Calea Serban Voda, Bucuresti",
    "stop_lat": 44.41129,
    "stop_lon": 26.10034,
    "location_type": "",
    "platform_code": "",
    "parent_station": "",
    "level_id": ""
  },
  {
    "stop_id": 3649,
    "stop_name": "Adesgo",
    "stop_desc": "Calea Serban Voda, Bucuresti",
    "stop_lat": 44.4114,
    "stop_lon": 26.100405,
    "location_type": "",
    "platform_code": "",
    "parent_station": "",
    "level_id": ""
  },
  {
    "stop_id": 7277,
    "stop_name": "Adesgo",
    "stop_desc": "Calea Serban Voda, Bucuresti",
    "stop_lat": 44.41114,
    "stop_lon": 26.09987,
    "location_type": "",
    "platform_code": "",
    "parent_station": "",
    "level_id": ""
  },
  {
    "stop_id": 7385,
    "stop_name": "Adesgo",
    "stop_desc": "Calea Serban Voda, Bucuresti",
    "stop_lat": 44.411495,
    "stop_lon": 26.10074,
    "location_type": "",
    "platform_code": "",
    "parent_station": "",
    "level_id": ""
  },
  {
    "stop_id": 8496,
    "stop_name": "Aerodrom",
    "stop_desc": "DC 125, Ilfov",
    "stop_lat": 44.36587,
    "stop_lon": 25.913198,
    "location_type": "",
    "platform_code": "",
    "parent_station": "",
    "level_id": ""
  },
  {
    "stop_id": 8497,
    "stop_name": "Aerodrom",
    "stop_desc": "DC 125, Ilfov",
    "stop_lat": 44.366005,
    "stop_lon": 25.91358,
    "location_type": "",
    "platform_code": "",
    "parent_station": "",
    "level_id": ""
  },
  {
    "stop_id": 12217,
    "stop_name": "Aeroport Baneasa",
    "stop_desc": "Str. Gratioasa, Bucuresti",
    "stop_lat": 44.495155,
    "stop_lon": 26.080809,
    "location_type": "",
    "platform_code": "",
    "parent_station": "",
    "level_id": ""
  },
  {
    "stop_id": 12288,
    "stop_name": "Aeroport Baneasa",
    "stop_desc": "DN1",
    "stop_lat": 44.497303,
    "stop_lon": 26.07957,
    "location_type": "",
    "platform_code": "",
    "parent_station": "",
    "level_id": ""
  },
  {
    "stop_id": 7022,
    "stop_name": "Aeroport Baneasa",
    "stop_desc": "Sos. Bucuresti-Ploiesti, Bucuresti",
    "stop_lat": 44.496006,
    "stop_lon": 26.078865,
    "location_type": "",
    "platform_code": "",
    "parent_station": "",
    "level_id": ""
  },
  {
    "stop_id": "PV1_128",
    "stop_name": "Aeroport Baneasa",
    "stop_desc": "",
    "stop_lat": 44.49587,
    "stop_lon": 26.078863,
    "location_type": "",
    "platform_code": "",
    "parent_station": "",
    "level_id": ""
  },
  {
    "stop_id": "PV1_5430",
    "stop_name": "Aeroport Baneasa",
    "stop_desc": "",
    "stop_lat": 44.49728,
    "stop_lon": 26.079613,
    "location_type": "",
    "platform_code": "",
    "parent_station": "",
    "level_id": ""
  },
  {
    "stop_id": 6044,
    "stop_name": "Aeroport Henri Coanda Plecari",
    "stop_desc": "Aeroport Otopeni, Ilfov",
    "stop_lat": 44.571396,
    "stop_lon": 26.076683,
    "location_type": "",
    "platform_code": "",
    "parent_station": "",
    "level_id": ""
  },
  {
    "stop_id": 6626,
    "stop_name": "Aeroport Henri Coanda Plecari",
    "stop_desc": "Aeroport Otopeni, Ilfov",
    "stop_lat": 44.571392,
    "stop_lon": 26.076683,
    "location_type": "",
    "platform_code": "",
    "parent_station": "",
    "level_id": ""
  },
  {
    "stop_id": 6046,
    "stop_name": "Aeroport Henri Coanda Sosiri",
    "stop_desc": "Aeroport Otopeni, Ilfov",
    "stop_lat": 44.569016,
    "stop_lon": 26.077337,
    "location_type": "",
    "platform_code": "",
    "parent_station": "",
    "level_id": ""
  },
  {
    "stop_id": 6504,
    "stop_name": "Aeroport Henri Coanda Sosiri",
    "stop_desc": "Aeroport Otopeni, Ilfov",
    "stop_lat": 44.569424,
    "stop_lon": 26.07731,
    "location_type": "",
    "platform_code": "",
    "parent_station": "",
    "level_id": ""
  },
  {
    "stop_id": 6836,
    "stop_name": "Aeroportul Baneasa",
    "stop_desc": "Bd. Ion Ionescu de la Brad, Bucuresti",
    "stop_lat": 44.4953,
    "stop_lon": 26.077682,
    "location_type": "",
    "platform_code": "",
    "parent_station": "",
    "level_id": ""
  },
  {
    "stop_id": 6845,
    "stop_name": "Aeroportul Baneasa",
    "stop_desc": "Bd. Ion Ionescu de la Brad, Bucuresti",
    "stop_lat": 44.49551,
    "stop_lon": 26.077524,
    "location_type": "",
    "platform_code": "",
    "parent_station": "",
    "level_id": ""
  },
  {
    "stop_id": 8424,
    "stop_name": "Aeroportului",
    "stop_desc": "Sos. Bucuresti-Alexandria(DN6), Ilfov",
    "stop_lat": 44.351147,
    "stop_lon": 25.954874,
    "location_type": "",
    "platform_code": "",
    "parent_station": "",
    "level_id": ""
  },
  {
    "stop_id": 8427,
    "stop_name": "Aeroportului",
    "stop_desc": "Sos. Bucuresti-Alexandria(DN6), Ilfov",
    "stop_lat": 44.35134,
    "stop_lon": 25.955473,
    "location_type": "",
    "platform_code": "",
    "parent_station": "",
    "level_id": ""
  },
  {
    "stop_id": "PV1_531",
    "stop_name": "After School",
    "stop_desc": "",
    "stop_lat": 44.589195,
    "stop_lon": 26.135563,
    "location_type": "",
    "platform_code": "",
    "parent_station": "",
    "level_id": ""
  },
  {
    "stop_id": "PV1_570",
    "stop_name": "After School",
    "stop_desc": "",
    "stop_lat": 44.589607,
    "stop_lon": 26.135576,
    "location_type": "",
    "platform_code": "",
    "parent_station": "",
    "level_id": ""
  },
  {
    "stop_id": 12012,
    "stop_name": "Agregatelor",
    "stop_desc": "Str. Gherghitei, Bucuresti",
    "stop_lat": 44.476875,
    "stop_lon": 26.139317,
    "location_type": "",
    "platform_code": "",
    "parent_station": "",
    "level_id": ""
  },
  {
    "stop_id": 12013,
    "stop_name": "Agregatelor",
    "stop_desc": "Str. Gherghitei, Bucuresti",
    "stop_lat": 44.47607,
    "stop_lon": 26.139872,
    "location_type": "",
    "platform_code": "",
    "parent_station": "",
    "level_id": ""
  },
  {
    "stop_id": "PV9_710",
    "stop_name": "Agricultori",
    "stop_desc": "",
    "stop_lat": 44.547157,
    "stop_lon": 25.957188,
    "location_type": "",
    "platform_code": "",
    "parent_station": "",
    "level_id": ""
  },
  {
    "stop_id": "PV9_721",
    "stop_name": "Agricultori",
    "stop_desc": "",
    "stop_lat": 44.546474,
    "stop_lon": 25.95745,
    "location_type": "",
    "platform_code": "",
    "parent_station": "",
    "level_id": ""
  },
  {
    "stop_id": 3710,
    "stop_name": "Agricultorilor",
    "stop_desc": "Str. Matei Voievod, Bucuresti",
    "stop_lat": 44.437267,
    "stop_lon": 26.131834,
    "location_type": "",
    "platform_code": "",
    "parent_station": "",
    "level_id": ""
  },
  {
    "stop_id": 3839,
    "stop_name": "Agricultorilor",
    "stop_desc": "Str. Matei Voievod, Bucuresti",
    "stop_lat": 44.43738,
    "stop_lon": 26.132893,
    "location_type": "",
    "platform_code": "",
    "parent_station": "",
    "level_id": ""
  },
  {
    "stop_id": 8993,
    "stop_name": "Agromec",
    "stop_desc": "DJ101, Ilfov",
    "stop_lat": 44.635742,
    "stop_lon": 26.19163,
    "location_type": "",
    "platform_code": "",
    "parent_station": "",
    "level_id": ""
  },
  {
    "stop_id": 9002,
    "stop_name": "Agromec",
    "stop_desc": "DJ101, Ilfov",
    "stop_lat": 44.63582,
    "stop_lon": 26.191687,
    "location_type": "",
    "platform_code": "",
    "parent_station": "",
    "level_id": ""
  },
  {
    "stop_id": 3256,
    "stop_name": "Agronomie",
    "stop_desc": "Bd. Marasti, Bucuresti",
    "stop_lat": 44.471504,
    "stop_lon": 26.072477,
    "location_type": "",
    "platform_code": "",
    "parent_station": "",
    "level_id": ""
  },
  {
    "stop_id": 3266,
    "stop_name": "Agronomie",
    "stop_desc": "Bd. Marasti, Bucuresti",
    "stop_lat": 44.4716,
    "stop_lon": 26.072392,
    "location_type": "",
    "platform_code": "",
    "parent_station": "",
    "level_id": ""
  },
  {
    "stop_id": "PV1_803",
    "stop_name": "Agropol",
    "stop_desc": "",
    "stop_lat": 44.35413,
    "stop_lon": 26.210201,
    "location_type": "",
    "platform_code": "",
    "parent_station": "",
    "level_id": ""
  },
  {
    "stop_id": 6925,
    "stop_name": "Albotesti",
    "stop_desc": "Sos. Alexandriei, Bucuresti",
    "stop_lat": 44.39302,
    "stop_lon": 26.027925,
    "location_type": "",
    "platform_code": "",
    "parent_station": "",
    "level_id": ""
  },
  {
    "stop_id": 7504,
    "stop_name": "Albotesti",
    "stop_desc": "Sos. Alexandriei, Bucuresti",
    "stop_lat": 44.393272,
    "stop_lon": 26.02913,
    "location_type": "",
    "platform_code": "",
    "parent_station": "",
    "level_id": ""
  },
  {
    "stop_id": "PV9_682",
    "stop_name": "Aleea Cu Brazi",
    "stop_desc": "",
    "stop_lat": 44.563004,
    "stop_lon": 25.933104,
    "location_type": "",
    "platform_code": "",
    "parent_station": "",
    "level_id": ""
  },
  {
    "stop_id": "PV9_698",
    "stop_name": "Aleea Cu Brazi",
    "stop_desc": "",
    "stop_lat": 44.563057,
    "stop_lon": 25.932848,
    "location_type": "",
    "platform_code": "",
    "parent_station": "",
    "level_id": ""
  },
  {
    "stop_id": "PV1_3268",
    "stop_name": "Aleea Danubiana",
    "stop_desc": "",
    "stop_lat": 44.364452,
    "stop_lon": 26.193895,
    "location_type": "",
    "platform_code": "",
    "parent_station": "",
    "level_id": ""
  },
  {
    "stop_id": 12206,
    "stop_name": "Aleea Lacului",
    "stop_desc": "Sos. Fundeni, Bucuresti",
    "stop_lat": 44.45393,
    "stop_lon": 26.163568,
    "location_type": "",
    "platform_code": "",
    "parent_station": "",
    "level_id": ""
  },
  {
    "stop_id": 12207,
    "stop_name": "Aleea Lacului",
    "stop_desc": "Sos. Fundeni, Bucuresti",
    "stop_lat": 44.45482,
    "stop_lon": 26.163872,
    "location_type": "",
    "platform_code": "",
    "parent_station": "",
    "level_id": ""
  },
  {
    "stop_id": "PV1_5301",
    "stop_name": "Aleea Lacului",
    "stop_desc": "",
    "stop_lat": 44.45393,
    "stop_lon": 26.163568,
    "location_type": "",
    "platform_code": "",
    "parent_station": "",
    "level_id": ""
  },
  {
    "stop_id": "PV1_5302",
    "stop_name": "Aleea Lacului",
    "stop_desc": "",
    "stop_lat": 44.45482,
    "stop_lon": 26.163872,
    "location_type": "",
    "platform_code": "",
    "parent_station": "",
    "level_id": ""
  },
  {
    "stop_id": 6757,
    "stop_name": "Aleea Privighetorilor",
    "stop_desc": "Sos. Bucuresti-Ploiesti, Bucuresti",
    "stop_lat": 44.517307,
    "stop_lon": 26.07873,
    "location_type": "",
    "platform_code": "",
    "parent_station": "",
    "level_id": ""
  },
  {
    "stop_id": 7021,
    "stop_name": "Aleea Privighetorilor",
    "stop_desc": "Sos. Bucuresti-Ploiesti, Bucuresti",
    "stop_lat": 44.518974,
    "stop_lon": 26.077593,
    "location_type": "",
    "platform_code": "",
    "parent_station": "",
    "level_id": ""
  },
  {
    "stop_id": "PV1_125",
    "stop_name": "Aleea Privighetorilor",
    "stop_desc": "",
    "stop_lat": 44.517307,
    "stop_lon": 26.078722,
    "location_type": "",
    "platform_code": "",
    "parent_station": "",
    "level_id": ""
  },
  {
    "stop_id": "PV1_9",
    "stop_name": "Aleea Privighetorilor",
    "stop_desc": "",
    "stop_lat": 44.51897,
    "stop_lon": 26.077568,
    "location_type": "",
    "platform_code": "",
    "parent_station": "",
    "level_id": ""
  },
  {
    "stop_id": 3724,
    "stop_name": "Aleea Raul Targului",
    "stop_desc": "Str. Emil Racovita, Bucuresti",
    "stop_lat": 44.38047,
    "stop_lon": 26.126396,
    "location_type": "",
    "platform_code": "",
    "parent_station": "",
    "level_id": ""
  },
  {
    "stop_id": 3787,
    "stop_name": "Aleea Raul Targului",
    "stop_desc": "Str. Emil Racovita, Bucuresti",
    "stop_lat": 44.379993,
    "stop_lon": 26.126986,
    "location_type": "",
    "platform_code": "",
    "parent_station": "",
    "level_id": ""
  },
  {
    "stop_id": 3789,
    "stop_name": "Aleea Vlasiei",
    "stop_desc": "Drumul Taberei, Bucuresti",
    "stop_lat": 44.41611,
    "stop_lon": 26.024773,
    "location_type": "",
    "platform_code": "",
    "parent_station": "",
    "level_id": ""
  },
  {
    "stop_id": "PV1_5341",
    "stop_name": "Alexander Residence",
    "stop_desc": "",
    "stop_lat": 44.51542,
    "stop_lon": 26.150892,
    "location_type": "",
    "platform_code": "",
    "parent_station": "",
    "level_id": ""
  },
  {
    "stop_id": "PV1_5347",
    "stop_name": "Alexander Residence",
    "stop_desc": "",
    "stop_lat": 44.515907,
    "stop_lon": 26.148981,
    "location_type": "",
    "platform_code": "",
    "parent_station": "",
    "level_id": ""
  },
  {
    "stop_id": 6667,
    "stop_name": "Alexandru Ioan Cuza",
    "stop_desc": "Bd. 1 Decembrie 1918(Chiajna), Ilfov",
    "stop_lat": 44.448715,
    "stop_lon": 26.013426,
    "location_type": "",
    "platform_code": "",
    "parent_station": "",
    "level_id": ""
  },
  {
    "stop_id": 3269,
    "stop_name": "Alexandru Sihleanu",
    "stop_desc": "Calea Calarasilor, Bucuresti",
    "stop_lat": 44.432976,
    "stop_lon": 26.113699,
    "location_type": "",
    "platform_code": "",
    "parent_station": "",
    "level_id": ""
  },
  {
    "stop_id": 6755,
    "stop_name": "Alexandru Sihleanu",
    "stop_desc": "Calea Calarasilor, Bucuresti",
    "stop_lat": 44.43291,
    "stop_lon": 26.113607,
    "location_type": "",
    "platform_code": "",
    "parent_station": "",
    "level_id": ""
  },
  {
    "stop_id": 3113,
    "stop_name": "Alexandru cel Bun",
    "stop_desc": "Str. Maica Domnului, Bucuresti",
    "stop_lat": 44.45913,
    "stop_lon": 26.119904,
    "location_type": "",
    "platform_code": "",
    "parent_station": "",
    "level_id": ""
  },
  {
    "stop_id": 3374,
    "stop_name": "Alexandru cel Bun",
    "stop_desc": "Str. Maica Domnului, Bucuresti",
    "stop_lat": 44.459026,
    "stop_lon": 26.119984,
    "location_type": "",
    "platform_code": "",
    "parent_station": "",
    "level_id": ""
  },
  {
    "stop_id": 3721,
    "stop_name": "Aliorului",
    "stop_desc": "Str. Emil Racovita, Bucuresti",
    "stop_lat": 44.382294,
    "stop_lon": 26.124624,
    "location_type": "",
    "platform_code": "",
    "parent_station": "",
    "level_id": ""
  },
  {
    "stop_id": 3757,
    "stop_name": "Aliorului",
    "stop_desc": "Bd. Alex. Obregia, Bucuresti",
    "stop_lat": 44.378674,
    "stop_lon": 26.118362,
    "location_type": "",
    "platform_code": "",
    "parent_station": "",
    "level_id": ""
  },
  {
    "stop_id": 3796,
    "stop_name": "Aliorului",
    "stop_desc": "Bd. Alex. Obregia, Bucuresti",
    "stop_lat": 44.379204,
    "stop_lon": 26.118185,
    "location_type": "",
    "platform_code": "",
    "parent_station": "",
    "level_id": ""
  },
  {
    "stop_id": 3853,
    "stop_name": "Aliorului",
    "stop_desc": "Str. Emil Racovita, Bucuresti",
    "stop_lat": 44.382694,
    "stop_lon": 26.124422,
    "location_type": "",
    "platform_code": "",
    "parent_station": "",
    "level_id": ""
  },
  {
    "stop_id": 7099,
    "stop_name": "Alunisului",
    "stop_desc": "Str. Ciutaci, Ilfov",
    "stop_lat": 44.40705,
    "stop_lon": 25.923817,
    "location_type": "",
    "platform_code": "",
    "parent_station": "",
    "level_id": ""
  },
  {
    "stop_id": 7198,
    "stop_name": "Alunisului",
    "stop_desc": "Str. Ciutaci, Ilfov",
    "stop_lat": 44.407204,
    "stop_lon": 25.922367,
    "location_type": "",
    "platform_code": "",
    "parent_station": "",
    "level_id": ""
  },
  {
    "stop_id": 3820,
    "stop_name": "Amazoanei",
    "stop_desc": "Str. Dristorului, Bucuresti",
    "stop_lat": 44.425877,
    "stop_lon": 26.136078,
    "location_type": "",
    "platform_code": "",
    "parent_station": "",
    "level_id": ""
  },
  {
    "stop_id": "PV1_5774",
    "stop_name": "Ambasada S.u.a.",
    "stop_desc": "",
    "stop_lat": 44.51413,
    "stop_lon": 26.083551,
    "location_type": "",
    "platform_code": "",
    "parent_station": "",
    "level_id": ""
  },
  {
    "stop_id": "PV1_5775",
    "stop_name": "Ambasada S.u.a.",
    "stop_desc": "",
    "stop_lat": 44.5144,
    "stop_lon": 26.083698,
    "location_type": "",
    "platform_code": "",
    "parent_station": "",
    "level_id": ""
  },
  {
    "stop_id": 12351,
    "stop_name": "Ambasada SUA",
    "stop_desc": "Bd. Alexandru Nasta, Bucuresti",
    "stop_lat": 44.514122,
    "stop_lon": 26.083572,
    "location_type": "",
    "platform_code": "",
    "parent_station": "",
    "level_id": ""
  },
  {
    "stop_id": 12352,
    "stop_name": "Ambasada SUA",
    "stop_desc": "Bd. Alexandru Nasta, Bucuresti",
    "stop_lat": 44.514404,
    "stop_lon": 26.083681,
    "location_type": "",
    "platform_code": "",
    "parent_station": "",
    "level_id": ""
  },
  {
    "stop_id": 6756,
    "stop_name": "Amco",
    "stop_desc": "Calea Bucurestilor, Ilfov",
    "stop_lat": 44.541164,
    "stop_lon": 26.06856,
    "location_type": "",
    "platform_code": "",
    "parent_station": "",
    "level_id": ""
  },
  {
    "stop_id": 7020,
    "stop_name": "Amco",
    "stop_desc": "Calea Bucurestilor, Ilfov",
    "stop_lat": 44.541027,
    "stop_lon": 26.068775,
    "location_type": "",
    "platform_code": "",
    "parent_station": "",
    "level_id": ""
  },
  {
    "stop_id": "PV1_123",
    "stop_name": "Amco",
    "stop_desc": "",
    "stop_lat": 44.541187,
    "stop_lon": 26.068514,
    "location_type": "",
    "platform_code": "",
    "parent_station": "",
    "level_id": ""
  },
  {
    "stop_id": 6765,
    "stop_name": "Amurgului",
    "stop_desc": "Sos. Salaj, Bucuresti",
    "stop_lat": 44.401005,
    "stop_lon": 26.071507,
    "location_type": "",
    "platform_code": "",
    "parent_station": "",
    "level_id": ""
  },
  {
    "stop_id": 6773,
    "stop_name": "Amurgului",
    "stop_desc": "Sos. Salaj, Bucuresti",
    "stop_lat": 44.400383,
    "stop_lon": 26.070944,
    "location_type": "",
    "platform_code": "",
    "parent_station": "",
    "level_id": ""
  },
  {
    "stop_id": "PV1_308",
    "stop_name": "Ancu Miron",
    "stop_desc": "",
    "stop_lat": 44.576496,
    "stop_lon": 26.304226,
    "location_type": "",
    "platform_code": "",
    "parent_station": "",
    "level_id": ""
  },
  {
    "stop_id": "PV1_329",
    "stop_name": "Ancu Miron",
    "stop_desc": "",
    "stop_lat": 44.576214,
    "stop_lon": 26.30372,
    "location_type": "",
    "platform_code": "",
    "parent_station": "",
    "level_id": ""
  },
  {
    "stop_id": 7034,
    "stop_name": "Ancuta Baneasa",
    "stop_desc": "Calea Floreasca, Bucuresti",
    "stop_lat": 44.47031,
    "stop_lon": 26.104439,
    "location_type": "",
    "platform_code": "",
    "parent_station": "",
    "level_id": ""
  },
  {
    "stop_id": 7037,
    "stop_name": "Ancuta Baneasa",
    "stop_desc": "Calea Floreasca, Bucuresti",
    "stop_lat": 44.469765,
    "stop_lon": 26.104021,
    "location_type": "",
    "platform_code": "",
    "parent_station": "",
    "level_id": ""
  },
  {
    "stop_id": "PV1_653",
    "stop_name": "Ancuta Baneasa",
    "stop_desc": "",
    "stop_lat": 44.469765,
    "stop_lon": 26.104021,
    "location_type": "",
    "platform_code": "",
    "parent_station": "",
    "level_id": ""
  },
  {
    "stop_id": 10917,
    "stop_name": "Andronache",
    "stop_desc": "DC 21A, Ilfov",
    "stop_lat": 44.698,
    "stop_lon": 26.335337,
    "location_type": "",
    "platform_code": "",
    "parent_station": "",
    "level_id": ""
  },
  {
    "stop_id": 10918,
    "stop_name": "Andronache",
    "stop_desc": "DC 21A, Ilfov",
    "stop_lat": 44.698067,
    "stop_lon": 26.335266,
    "location_type": "",
    "platform_code": "",
    "parent_station": "",
    "level_id": ""
  },
  {
    "stop_id": 6791,
    "stop_name": "Anghel Alexandru",
    "stop_desc": "Sos. Giurgiului, Bucuresti",
    "stop_lat": 44.3783,
    "stop_lon": 26.091488,
    "location_type": "",
    "platform_code": "",
    "parent_station": "",
    "level_id": ""
  },
  {
    "stop_id": "PV1_882",
    "stop_name": "Anghel Alexandru",
    "stop_desc": "",
    "stop_lat": 44.3783,
    "stop_lon": 26.091488,
    "location_type": "",
    "platform_code": "",
    "parent_station": "",
    "level_id": ""
  },
  {
    "stop_id": 6923,
    "stop_name": "Anghel Moldoveanu",
    "stop_desc": "Str. Anghel Moldoveanu, Bucuresti",
    "stop_lat": 44.373093,
    "stop_lon": 26.09142,
    "location_type": "",
    "platform_code": "",
    "parent_station": "",
    "level_id": ""
  },
  {
    "stop_id": 3367,
    "stop_name": "Anghel Nutu",
    "stop_desc": "Sos. Giurgiului, Bucuresti",
    "stop_lat": 44.375908,
    "stop_lon": 26.090979,
    "location_type": "",
    "platform_code": "",
    "parent_station": "",
    "level_id": ""
  },
  {
    "stop_id": 3368,
    "stop_name": "Anghel Nutu",
    "stop_desc": "Sos. Giurgiului, Bucuresti",
    "stop_lat": 44.37621,
    "stop_lon": 26.091013,
    "location_type": "",
    "platform_code": "",
    "parent_station": "",
    "level_id": ""
  },
  {
    "stop_id": 14741,
    "stop_name": "Anghel Saligny",
    "stop_desc": "",
    "stop_lat": 44.40563,
    "stop_lon": 26.20844,
    "location_type": 1,
    "platform_code": "",
    "parent_station": "",
    "level_id": ""
  },
  {
    "stop_id": 8696,
    "stop_name": "Anghel Saligny",
    "stop_desc": "Bd. Th.Pallady, Ilfov",
    "stop_lat": 44.40512,
    "stop_lon": 26.208447,
    "location_type": "",
    "platform_code": "",
    "parent_station": "",
    "level_id": ""
  },
  {
    "stop_id": 8711,
    "stop_name": "Anghel Saligny",
    "stop_desc": "Bd. Th.Pallady, Ilfov",
    "stop_lat": 44.40572,
    "stop_lon": 26.21016,
    "location_type": "",
    "platform_code": "",
    "parent_station": "",
    "level_id": ""
  },
  {
    "stop_id": "PV1_2085",
    "stop_name": "Anghel Saligny",
    "stop_desc": "",
    "stop_lat": 44.405666,
    "stop_lon": 26.209694,
    "location_type": "",
    "platform_code": "",
    "parent_station": "",
    "level_id": ""
  },
  {
    "stop_id": "PV1_2777",
    "stop_name": "Anghel Saligny",
    "stop_desc": "",
    "stop_lat": 44.40518,
    "stop_lon": 26.207947,
    "location_type": "",
    "platform_code": "",
    "parent_station": "",
    "level_id": ""
  },
  {
    "stop_id": "14741R",
    "stop_name": "Anghel Saligny",
    "stop_desc": "",
    "stop_lat": 44.40563,
    "stop_lon": 26.20844,
    "location_type": "",
    "platform_code": "",
    "parent_station": 14741,
    "level_id": 0
  },
  {
    "stop_id": "14741T",
    "stop_name": "Anghel Saligny",
    "stop_desc": "",
    "stop_lat": 44.40563,
    "stop_lon": 26.20844,
    "location_type": "",
    "platform_code": "",
    "parent_station": 14741,
    "level_id": 0
  },
  {
    "stop_id": 12396,
    "stop_name": "Ansamblu Rezidential",
    "stop_desc": "Str. Scolii, Ilfov",
    "stop_lat": 44.376408,
    "stop_lon": 26.009554,
    "location_type": "",
    "platform_code": "",
    "parent_station": "",
    "level_id": ""
  },
  {
    "stop_id": "PV1_396",
    "stop_name": "Ansamblul Avangarde Forest Iii",
    "stop_desc": "",
    "stop_lat": 44.497154,
    "stop_lon": 26.16182,
    "location_type": "",
    "platform_code": "",
    "parent_station": "",
    "level_id": ""
  },
  {
    "stop_id": "PV1_416",
    "stop_name": "Ansamblul Avangarde Forest Iii",
    "stop_desc": "",
    "stop_lat": 44.496662,
    "stop_lon": 26.161465,
    "location_type": "",
    "platform_code": "",
    "parent_station": "",
    "level_id": ""
  },
  {
    "stop_id": 7188,
    "stop_name": "Ansamblul Olteni",
    "stop_desc": "Sos. T. Vladimirescu-Domnesti, Ilfov",
    "stop_lat": 44.403698,
    "stop_lon": 25.963057,
    "location_type": "",
    "platform_code": "",
    "parent_station": "",
    "level_id": ""
  },
  {
    "stop_id": 7123,
    "stop_name": "Ansamblul Primavara",
    "stop_desc": "Prel. Ghencea, Bucuresti",
    "stop_lat": 44.41069,
    "stop_lon": 26.00667,
    "location_type": "",
    "platform_code": "",
    "parent_station": "",
    "level_id": ""
  },
  {
    "stop_id": 7133,
    "stop_name": "Ansamblul Primavara",
    "stop_desc": "Prel. Ghencea, Bucuresti",
    "stop_lat": 44.410755,
    "stop_lon": 26.00763,
    "location_type": "",
    "platform_code": "",
    "parent_station": "",
    "level_id": ""
  },
  {
    "stop_id": 9392,
    "stop_name": "Ansamblul Rezidential Vilaggio S",
    "stop_desc": "DJ101, Ilfov",
    "stop_lat": 44.624016,
    "stop_lon": 26.140736,
    "location_type": "",
    "platform_code": "",
    "parent_station": "",
    "level_id": ""
  },
  {
    "stop_id": 9393,
    "stop_name": "Ansamblul Rezidential Vilaggio S",
    "stop_desc": "DJ101, Ilfov",
    "stop_lat": 44.624092,
    "stop_lon": 26.140474,
    "location_type": "",
    "platform_code": "",
    "parent_station": "",
    "level_id": ""
  },
  {
    "stop_id": 3530,
    "stop_name": "Antiaeriana",
    "stop_desc": "Sos. Alexandriei, Bucuresti",
    "stop_lat": 44.400448,
    "stop_lon": 26.050417,
    "location_type": "",
    "platform_code": "",
    "parent_station": "",
    "level_id": ""
  },
  {
    "stop_id": 3581,
    "stop_name": "Antiaeriana",
    "stop_desc": "Sos. Alexandriei, Bucuresti",
    "stop_lat": 44.40037,
    "stop_lon": 26.050125,
    "location_type": "",
    "platform_code": "",
    "parent_station": "",
    "level_id": ""
  },
  {
    "stop_id": 7158,
    "stop_name": "Antiaeriana",
    "stop_desc": "Sos. Alexandriei, Bucuresti",
    "stop_lat": 44.40064,
    "stop_lon": 26.05108,
    "location_type": "",
    "platform_code": "",
    "parent_station": "",
    "level_id": ""
  },
  {
    "stop_id": 7160,
    "stop_name": "Antiaeriana",
    "stop_desc": "Sos. Alexandriei, Bucuresti",
    "stop_lat": 44.400665,
    "stop_lon": 26.050632,
    "location_type": "",
    "platform_code": "",
    "parent_station": "",
    "level_id": ""
  },
  {
    "stop_id": 8487,
    "stop_name": "Antim Ivireanul",
    "stop_desc": "Str. Antim Irvireanu, Ilfov",
    "stop_lat": 44.73891,
    "stop_lon": 26.177668,
    "location_type": "",
    "platform_code": "",
    "parent_station": "",
    "level_id": ""
  },
  {
    "stop_id": 8488,
    "stop_name": "Antim Ivireanul",
    "stop_desc": "Str. Antim Irvireanu, Ilfov",
    "stop_lat": 44.738808,
    "stop_lon": 26.177626,
    "location_type": "",
    "platform_code": "",
    "parent_station": "",
    "level_id": ""
  },
  {
    "stop_id": 12265,
    "stop_name": "Apeductului 64",
    "stop_desc": "Str. Apeductului, Ilfov",
    "stop_lat": 44.450527,
    "stop_lon": 25.979286,
    "location_type": "",
    "platform_code": "",
    "parent_station": "",
    "level_id": ""
  },
  {
    "stop_id": 12076,
    "stop_name": "Apicola",
    "stop_desc": "Bd. Aerogarii, Bucuresti",
    "stop_lat": 44.49236,
    "stop_lon": 26.088057,
    "location_type": "",
    "platform_code": "",
    "parent_station": "",
    "level_id": ""
  },
  {
    "stop_id": 12077,
    "stop_name": "Apicola",
    "stop_desc": "Bd. Aerogarii, Bucuresti",
    "stop_lat": 44.492542,
    "stop_lon": 26.087753,
    "location_type": "",
    "platform_code": "",
    "parent_station": "",
    "level_id": ""
  },
  {
    "stop_id": 3849,
    "stop_name": "Apusului",
    "stop_desc": "Bd. Iuliu Maniu, Bucuresti",
    "stop_lat": 44.433826,
    "stop_lon": 26.012459,
    "location_type": "",
    "platform_code": "",
    "parent_station": "",
    "level_id": ""
  },
  {
    "stop_id": 3856,
    "stop_name": "Apusului",
    "stop_desc": "Bd. Iuliu Maniu, Bucuresti",
    "stop_lat": 44.43404,
    "stop_lon": 26.01234,
    "location_type": "",
    "platform_code": "",
    "parent_station": "",
    "level_id": ""
  },
  {
    "stop_id": 6386,
    "stop_name": "Apusului",
    "stop_desc": "Bd. Uverturii, Bucuresti",
    "stop_lat": 44.44415,
    "stop_lon": 26.019234,
    "location_type": "",
    "platform_code": "",
    "parent_station": "",
    "level_id": ""
  },
  {
    "stop_id": 7138,
    "stop_name": "Apusului",
    "stop_desc": "Str. Apusului, Bucuresti",
    "stop_lat": 44.443153,
    "stop_lon": 26.019226,
    "location_type": "",
    "platform_code": "",
    "parent_station": "",
    "level_id": ""
  },
  {
    "stop_id": 14731,
    "stop_name": "Apărătorii Patriei",
    "stop_desc": "",
    "stop_lat": 44.37925,
    "stop_lon": 26.13563,
    "location_type": 1,
    "platform_code": "",
    "parent_station": "",
    "level_id": ""
  },
  {
    "stop_id": "14731R",
    "stop_name": "Apărătorii Patriei",
    "stop_desc": "",
    "stop_lat": 44.37925,
    "stop_lon": 26.13563,
    "location_type": "",
    "platform_code": 2,
    "parent_station": 14731,
    "level_id": 0
  },
  {
    "stop_id": "14731T",
    "stop_name": "Apărătorii Patriei",
    "stop_desc": "",
    "stop_lat": 44.37925,
    "stop_lon": 26.13563,
    "location_type": "",
    "platform_code": 1,
    "parent_station": 14731,
    "level_id": 0
  },
  {
    "stop_id": 7293,
    "stop_name": "Aragonitului",
    "stop_desc": "Str. Apusului, Bucuresti",
    "stop_lat": 44.440998,
    "stop_lon": 26.017204,
    "location_type": "",
    "platform_code": "",
    "parent_station": "",
    "level_id": ""
  },
  {
    "stop_id": 7610,
    "stop_name": "Aragonitului",
    "stop_desc": "Str. Apusului, Bucuresti",
    "stop_lat": 44.441433,
    "stop_lon": 26.017836,
    "location_type": "",
    "platform_code": "",
    "parent_station": "",
    "level_id": ""
  },
  {
    "stop_id": 8486,
    "stop_name": "Arcadei",
    "stop_desc": "DJ 101, Ilfov",
    "stop_lat": 44.596146,
    "stop_lon": 26.050314,
    "location_type": "",
    "platform_code": "",
    "parent_station": "",
    "level_id": ""
  },
  {
    "stop_id": 8489,
    "stop_name": "Arcadei",
    "stop_desc": "DJ 101, Ilfov",
    "stop_lat": 44.59616,
    "stop_lon": 26.05071,
    "location_type": "",
    "platform_code": "",
    "parent_station": "",
    "level_id": ""
  },
  {
    "stop_id": 11023,
    "stop_name": "Arcadiei",
    "stop_desc": "Drumul Jilavei, Bucuresti",
    "stop_lat": 44.373642,
    "stop_lon": 26.130486,
    "location_type": "",
    "platform_code": "",
    "parent_station": "",
    "level_id": ""
  },
  {
    "stop_id": 12244,
    "stop_name": "Arcul de Triumf",
    "stop_desc": "Sos. Pavel D. Kiseleff, Bucuresti",
    "stop_lat": 44.466206,
    "stop_lon": 26.07856,
    "location_type": "",
    "platform_code": "",
    "parent_station": "",
    "level_id": ""
  },
  {
    "stop_id": 7028,
    "stop_name": "Arcul de Triumf",
    "stop_desc": "Sos.Kiseleff, Bucuresti",
    "stop_lat": 44.467644,
    "stop_lon": 26.078308,
    "location_type": "",
    "platform_code": "",
    "parent_station": "",
    "level_id": ""
  },
  {
    "stop_id": 7259,
    "stop_name": "Arcul de Triumf",
    "stop_desc": "Str. Alex. Constantinescu, Bucuresti",
    "stop_lat": 44.467617,
    "stop_lon": 26.0767,
    "location_type": "",
    "platform_code": "",
    "parent_station": "",
    "level_id": ""
  },
  {
    "stop_id": 7340,
    "stop_name": "Arcul de Triumf",
    "stop_desc": "Bd. Maresal Ctin.Prezan, Bucuresti",
    "stop_lat": 44.46695,
    "stop_lon": 26.07948,
    "location_type": "",
    "platform_code": "",
    "parent_station": "",
    "level_id": ""
  },
  {
    "stop_id": "PV1_400",
    "stop_name": "Ardealului",
    "stop_desc": "",
    "stop_lat": 44.48407,
    "stop_lon": 26.169024,
    "location_type": "",
    "platform_code": "",
    "parent_station": "",
    "level_id": ""
  },
  {
    "stop_id": "PV1_413",
    "stop_name": "Ardealului",
    "stop_desc": "",
    "stop_lat": 44.48456,
    "stop_lon": 26.16829,
    "location_type": "",
    "platform_code": "",
    "parent_station": "",
    "level_id": ""
  },
  {
    "stop_id": 6704,
    "stop_name": "Arefului",
    "stop_desc": "Str. Arefului, Bucuresti",
    "stop_lat": 44.405495,
    "stop_lon": 26.022066,
    "location_type": "",
    "platform_code": "",
    "parent_station": "",
    "level_id": ""
  },
  {
    "stop_id": 3506,
    "stop_name": "Arena Nationala",
    "stop_desc": "Bd. Basarabia, Bucuresti",
    "stop_lat": 44.433342,
    "stop_lon": 26.15298,
    "location_type": "",
    "platform_code": "",
    "parent_station": "",
    "level_id": ""
  },
  {
    "stop_id": 3507,
    "stop_name": "Arena Nationala",
    "stop_desc": "Bd. Basarabia, Bucuresti",
    "stop_lat": 44.433342,
    "stop_lon": 26.152573,
    "location_type": "",
    "platform_code": "",
    "parent_station": "",
    "level_id": ""
  },
  {
    "stop_id": 3767,
    "stop_name": "Arena Nationala",
    "stop_desc": "Bd. Pierre de Coubertin, Bucuresti",
    "stop_lat": 44.43971,
    "stop_lon": 26.150944,
    "location_type": "",
    "platform_code": "",
    "parent_station": "",
    "level_id": ""
  },
  {
    "stop_id": 3768,
    "stop_name": "Arena Nationala",
    "stop_desc": "Bd. Pierre de Coubertin, Bucuresti",
    "stop_lat": 44.439667,
    "stop_lon": 26.150433,
    "location_type": "",
    "platform_code": "",
    "parent_station": "",
    "level_id": ""
  },
  {
    "stop_id": 7146,
    "stop_name": "Arena Nationala",
    "stop_desc": "Bd. Basarabia, Bucuresti",
    "stop_lat": 44.43329,
    "stop_lon": 26.153467,
    "location_type": "",
    "platform_code": "",
    "parent_station": "",
    "level_id": ""
  },
  {
    "stop_id": 7165,
    "stop_name": "Arena Nationala",
    "stop_desc": "Bd. Basarabia, Bucuresti",
    "stop_lat": 44.43341,
    "stop_lon": 26.152655,
    "location_type": "",
    "platform_code": "",
    "parent_station": "",
    "level_id": ""
  },
  {
    "stop_id": "PV1_3117",
    "stop_name": "Arges",
    "stop_desc": "",
    "stop_lat": 44.304325,
    "stop_lon": 26.011444,
    "location_type": "",
    "platform_code": "",
    "parent_station": "",
    "level_id": ""
  },
  {
    "stop_id": "PV1_3127",
    "stop_name": "Arges",
    "stop_desc": "",
    "stop_lat": 44.305595,
    "stop_lon": 26.012873,
    "location_type": "",
    "platform_code": "",
    "parent_station": "",
    "level_id": ""
  },
  {
    "stop_id": 12245,
    "stop_name": "Arhitect Ion Mincu",
    "stop_desc": "Sos. Pavel D. Kiseleff, Bucuresti",
    "stop_lat": 44.458466,
    "stop_lon": 26.082445,
    "location_type": "",
    "platform_code": "",
    "parent_station": "",
    "level_id": ""
  },
  {
    "stop_id": 12247,
    "stop_name": "Arhitect Ion Mincu",
    "stop_desc": "Bd. Aviatorilor, Bucuresti",
    "stop_lat": 44.46041,
    "stop_lon": 26.08623,
    "location_type": "",
    "platform_code": "",
    "parent_station": "",
    "level_id": ""
  },
  {
    "stop_id": "PV1_398",
    "stop_name": "Aries",
    "stop_desc": "",
    "stop_lat": 44.49557,
    "stop_lon": 26.167667,
    "location_type": "",
    "platform_code": "",
    "parent_station": "",
    "level_id": ""
  },
  {
    "stop_id": "PV1_414",
    "stop_name": "Aries",
    "stop_desc": "",
    "stop_lat": 44.496223,
    "stop_lon": 26.167772,
    "location_type": "",
    "platform_code": "",
    "parent_station": "",
    "level_id": ""
  },
  {
    "stop_id": 3827,
    "stop_name": "Armeneasca",
    "stop_desc": "Bd. Carol I, Bucuresti",
    "stop_lat": 44.43679,
    "stop_lon": 26.109535,
    "location_type": "",
    "platform_code": "",
    "parent_station": "",
    "level_id": ""
  },
  {
    "stop_id": 3866,
    "stop_name": "Armeneasca",
    "stop_desc": "Bd. Carol I, Bucuresti",
    "stop_lat": 44.43707,
    "stop_lon": 26.11058,
    "location_type": "",
    "platform_code": "",
    "parent_station": "",
    "level_id": ""
  },
  {
    "stop_id": 3264,
    "stop_name": "Armistitiului",
    "stop_desc": "Calea Ferentari, Bucuresti",
    "stop_lat": 44.40327,
    "stop_lon": 26.081547,
    "location_type": "",
    "platform_code": "",
    "parent_station": "",
    "level_id": ""
  },
  {
    "stop_id": 3549,
    "stop_name": "Armistitiului",
    "stop_desc": "Calea Ferentari, Bucuresti",
    "stop_lat": 44.403046,
    "stop_lon": 26.081757,
    "location_type": "",
    "platform_code": "",
    "parent_station": "",
    "level_id": ""
  },
  {
    "stop_id": 7046,
    "stop_name": "Armistitiului",
    "stop_desc": "Str. Salviei, Bucuresti",
    "stop_lat": 44.4003,
    "stop_lon": 26.07767,
    "location_type": "",
    "platform_code": "",
    "parent_station": "",
    "level_id": ""
  },
  {
    "stop_id": 7350,
    "stop_name": "Armistitiului",
    "stop_desc": "Str. Salviei, Bucuresti",
    "stop_lat": 44.40033,
    "stop_lon": 26.07725,
    "location_type": "",
    "platform_code": "",
    "parent_station": "",
    "level_id": ""
  },
  {
    "stop_id": 12354,
    "stop_name": "Arthur Verona",
    "stop_desc": "Bd. Gral Gheorghe Magheru, Bucuresti",
    "stop_lat": 44.442543,
    "stop_lon": 26.099022,
    "location_type": "",
    "platform_code": "",
    "parent_station": "",
    "level_id": ""
  },
  {
    "stop_id": 7151,
    "stop_name": "Artistilor",
    "stop_desc": "Sos. Giurgiului, Ilfov",
    "stop_lat": 44.295727,
    "stop_lon": 26.061367,
    "location_type": "",
    "platform_code": "",
    "parent_station": "",
    "level_id": ""
  },
  {
    "stop_id": 7167,
    "stop_name": "Artistilor",
    "stop_desc": "Sos. Giurgiului, Ilfov",
    "stop_lat": 44.2952,
    "stop_lon": 26.06111,
    "location_type": "",
    "platform_code": "",
    "parent_station": "",
    "level_id": ""
  },
  {
    "stop_id": "PV1_2843",
    "stop_name": "Artistilor",
    "stop_desc": "",
    "stop_lat": 44.295036,
    "stop_lon": 26.061085,
    "location_type": "",
    "platform_code": "",
    "parent_station": "",
    "level_id": ""
  },
  {
    "stop_id": "PV1_2869",
    "stop_name": "Artistilor",
    "stop_desc": "",
    "stop_lat": 44.295727,
    "stop_lon": 26.061348,
    "location_type": "",
    "platform_code": "",
    "parent_station": "",
    "level_id": ""
  },
  {
    "stop_id": "PV1_3114",
    "stop_name": "Asan",
    "stop_desc": "",
    "stop_lat": 44.310463,
    "stop_lon": 26.016521,
    "location_type": "",
    "platform_code": "",
    "parent_station": "",
    "level_id": ""
  },
  {
    "stop_id": "PV1_3130",
    "stop_name": "Asan",
    "stop_desc": "",
    "stop_lat": 44.310715,
    "stop_lon": 26.016354,
    "location_type": "",
    "platform_code": "",
    "parent_station": "",
    "level_id": ""
  },
  {
    "stop_id": "PV1_100",
    "stop_name": "Asociatia Columbofila",
    "stop_desc": "",
    "stop_lat": 44.545696,
    "stop_lon": 26.152716,
    "location_type": "",
    "platform_code": "",
    "parent_station": "",
    "level_id": ""
  },
  {
    "stop_id": "PV1_30",
    "stop_name": "Asociatia Columbofila",
    "stop_desc": "",
    "stop_lat": 44.545567,
    "stop_lon": 26.153517,
    "location_type": "",
    "platform_code": "",
    "parent_station": "",
    "level_id": ""
  },
  {
    "stop_id": "PV1_202",
    "stop_name": "Asociatia Don Orione",
    "stop_desc": "",
    "stop_lat": 44.495075,
    "stop_lon": 26.174608,
    "location_type": "",
    "platform_code": "",
    "parent_station": "",
    "level_id": ""
  },
  {
    "stop_id": "PV1_268",
    "stop_name": "Asociatia Don Orione",
    "stop_desc": "",
    "stop_lat": 44.494667,
    "stop_lon": 26.174139,
    "location_type": "",
    "platform_code": "",
    "parent_station": "",
    "level_id": ""
  },
  {
    "stop_id": 8380,
    "stop_name": "Astoria",
    "stop_desc": "DJ 101 B, Ilfov",
    "stop_lat": 44.71403,
    "stop_lon": 26.192932,
    "location_type": "",
    "platform_code": "",
    "parent_station": "",
    "level_id": ""
  },
  {
    "stop_id": 8582,
    "stop_name": "Astoria",
    "stop_desc": "DJ 101 B, Ilfov",
    "stop_lat": 44.714233,
    "stop_lon": 26.19354,
    "location_type": "",
    "platform_code": "",
    "parent_station": "",
    "level_id": ""
  },
  {
    "stop_id": "PV2_743",
    "stop_name": "Astronomului",
    "stop_desc": "",
    "stop_lat": 44.52171,
    "stop_lon": 25.996367,
    "location_type": "",
    "platform_code": "",
    "parent_station": "",
    "level_id": ""
  },
  {
    "stop_id": "PV2_761",
    "stop_name": "Astronomului",
    "stop_desc": "",
    "stop_lat": 44.522297,
    "stop_lon": 25.997133,
    "location_type": "",
    "platform_code": "",
    "parent_station": "",
    "level_id": ""
  },
  {
    "stop_id": 6111,
    "stop_name": "Atlasului",
    "stop_desc": "Campinita, Bucuresti",
    "stop_lat": 44.506413,
    "stop_lon": 26.059803,
    "location_type": "",
    "platform_code": "",
    "parent_station": "",
    "level_id": ""
  },
  {
    "stop_id": 6182,
    "stop_name": "Atlasului",
    "stop_desc": "Str. Oaspetilor, Bucuresti",
    "stop_lat": 44.506584,
    "stop_lon": 26.058546,
    "location_type": "",
    "platform_code": "",
    "parent_station": "",
    "level_id": ""
  },
  {
    "stop_id": 6011,
    "stop_name": "Atomistilor 45",
    "stop_desc": "Str. Atomistilor, Ilfov",
    "stop_lat": 44.354797,
    "stop_lon": 26.033936,
    "location_type": "",
    "platform_code": "",
    "parent_station": "",
    "level_id": ""
  },
  {
    "stop_id": "PV1_3100",
    "stop_name": "Atomistilor 45",
    "stop_desc": "",
    "stop_lat": 44.354797,
    "stop_lon": 26.033936,
    "location_type": "",
    "platform_code": "",
    "parent_station": "",
    "level_id": ""
  },
  {
    "stop_id": 7279,
    "stop_name": "Atomistilor 94",
    "stop_desc": "Str. Atomistilor, Ilfov",
    "stop_lat": 44.35389,
    "stop_lon": 26.03329,
    "location_type": "",
    "platform_code": "",
    "parent_station": "",
    "level_id": ""
  },
  {
    "stop_id": 7401,
    "stop_name": "Atomistilor 94",
    "stop_desc": "Str. Reactorului, Ilfov",
    "stop_lat": 44.354107,
    "stop_lon": 26.034508,
    "location_type": "",
    "platform_code": "",
    "parent_station": "",
    "level_id": ""
  },
  {
    "stop_id": "PV1_3081",
    "stop_name": "Atomistilor 94",
    "stop_desc": "",
    "stop_lat": 44.353924,
    "stop_lon": 26.033342,
    "location_type": "",
    "platform_code": "",
    "parent_station": "",
    "level_id": ""
  },
  {
    "stop_id": 3713,
    "stop_name": "Aura Buzescu",
    "stop_desc": "Str. Vatra Luminoasa, Bucuresti",
    "stop_lat": 44.43994,
    "stop_lon": 26.14586,
    "location_type": "",
    "platform_code": "",
    "parent_station": "",
    "level_id": ""
  },
  {
    "stop_id": 3841,
    "stop_name": "Aura Buzescu",
    "stop_desc": "Str. Vatra Luminoasa, Bucuresti",
    "stop_lat": 44.440056,
    "stop_lon": 26.145824,
    "location_type": "",
    "platform_code": "",
    "parent_station": "",
    "level_id": ""
  },
  {
    "stop_id": 10901,
    "stop_name": "Aurel Persu",
    "stop_desc": "Drumul Binelui, Bucuresti",
    "stop_lat": 44.367245,
    "stop_lon": 26.120028,
    "location_type": "",
    "platform_code": "",
    "parent_station": "",
    "level_id": ""
  },
  {
    "stop_id": 10908,
    "stop_name": "Aurel Persu",
    "stop_desc": "Str. Aurel Persu, Bucuresti",
    "stop_lat": 44.367336,
    "stop_lon": 26.119389,
    "location_type": "",
    "platform_code": "",
    "parent_station": "",
    "level_id": ""
  },
  {
    "stop_id": 14721,
    "stop_name": "Aurel Vlaicu",
    "stop_desc": "",
    "stop_lat": 44.47921,
    "stop_lon": 26.10021,
    "location_type": 1,
    "platform_code": "",
    "parent_station": "",
    "level_id": ""
  },
  {
    "stop_id": 6408,
    "stop_name": "Aurel Vlaicu",
    "stop_desc": "Calea Floreasca, Bucuresti",
    "stop_lat": 44.47922,
    "stop_lon": 26.101732,
    "location_type": "",
    "platform_code": "",
    "parent_station": "",
    "level_id": ""
  },
  {
    "stop_id": 7258,
    "stop_name": "Aurel Vlaicu",
    "stop_desc": "Calea Floreasca, Bucuresti",
    "stop_lat": 44.47893,
    "stop_lon": 26.101757,
    "location_type": "",
    "platform_code": "",
    "parent_station": "",
    "level_id": ""
  },
  {
    "stop_id": 7367,
    "stop_name": "Aurel Vlaicu",
    "stop_desc": "Sos. Pipera, Bucuresti",
    "stop_lat": 44.47952,
    "stop_lon": 26.100586,
    "location_type": "",
    "platform_code": "",
    "parent_station": "",
    "level_id": ""
  },
  {
    "stop_id": 7421,
    "stop_name": "Aurel Vlaicu",
    "stop_desc": "Sos. Pipera, Bucuresti",
    "stop_lat": 44.479588,
    "stop_lon": 26.099512,
    "location_type": "",
    "platform_code": "",
    "parent_station": "",
    "level_id": ""
  },
  {
    "stop_id": "PV1_1516",
    "stop_name": "Aurel Vlaicu",
    "stop_desc": "",
    "stop_lat": 44.478935,
    "stop_lon": 26.101746,
    "location_type": "",
    "platform_code": "",
    "parent_station": "",
    "level_id": ""
  },
  {
    "stop_id": "PV1_614",
    "stop_name": "Aurel Vlaicu",
    "stop_desc": "",
    "stop_lat": 44.479214,
    "stop_lon": 26.10169,
    "location_type": "",
    "platform_code": "",
    "parent_station": "",
    "level_id": ""
  },
  {
    "stop_id": "14721R",
    "stop_name": "Aurel Vlaicu",
    "stop_desc": "",
    "stop_lat": 44.47921,
    "stop_lon": 26.10021,
    "location_type": "",
    "platform_code": 2,
    "parent_station": 14721,
    "level_id": 0
  },
  {
    "stop_id": "14721T",
    "stop_name": "Aurel Vlaicu",
    "stop_desc": "",
    "stop_lat": 44.47921,
    "stop_lon": 26.10021,
    "location_type": "",
    "platform_code": 1,
    "parent_station": 14721,
    "level_id": 0
  },
  {
    "stop_id": 6234,
    "stop_name": "Autobaza Alexandria",
    "stop_desc": "Drum Acces Autobaza Alexandria, Bucuresti",
    "stop_lat": 44.398983,
    "stop_lon": 26.040773,
    "location_type": "",
    "platform_code": "",
    "parent_station": "",
    "level_id": ""
  },
  {
    "stop_id": 8420,
    "stop_name": "Autoconf Textile",
    "stop_desc": "DJ 101, Ilfov",
    "stop_lat": 44.613243,
    "stop_lon": 26.079168,
    "location_type": "",
    "platform_code": "",
    "parent_station": "",
    "level_id": ""
  },
  {
    "stop_id": 8450,
    "stop_name": "Autoconf Textile",
    "stop_desc": "DJ 101, Ilfov",
    "stop_lat": 44.61284,
    "stop_lon": 26.078348,
    "location_type": "",
    "platform_code": "",
    "parent_station": "",
    "level_id": ""
  },
  {
    "stop_id": 3495,
    "stop_name": "Autogara Filaret",
    "stop_desc": "Str. Dr.Istrati, Bucuresti",
    "stop_lat": 44.4146,
    "stop_lon": 26.091358,
    "location_type": "",
    "platform_code": "",
    "parent_station": "",
    "level_id": ""
  },
  {
    "stop_id": 3510,
    "stop_name": "Autogara Filaret",
    "stop_desc": "Str. Dr.Istrati, Bucuresti",
    "stop_lat": 44.41477,
    "stop_lon": 26.091732,
    "location_type": "",
    "platform_code": "",
    "parent_station": "",
    "level_id": ""
  },
  {
    "stop_id": 6716,
    "stop_name": "Autogara Filaret",
    "stop_desc": "Str. Dr.Istrati, Bucuresti",
    "stop_lat": 44.415264,
    "stop_lon": 26.092682,
    "location_type": "",
    "platform_code": "",
    "parent_station": "",
    "level_id": ""
  },
  {
    "stop_id": 6719,
    "stop_name": "Autogara Filaret",
    "stop_desc": "Str. Dr.Istrati, Bucuresti",
    "stop_lat": 44.414555,
    "stop_lon": 26.09115,
    "location_type": "",
    "platform_code": "",
    "parent_station": "",
    "level_id": ""
  },
  {
    "stop_id": 3727,
    "stop_name": "Autogara Militari",
    "stop_desc": "Bd. Iuliu Maniu, Bucuresti",
    "stop_lat": 44.43372,
    "stop_lon": 26.007061,
    "location_type": "",
    "platform_code": "",
    "parent_station": "",
    "level_id": ""
  },
  {
    "stop_id": "PV1_288",
    "stop_name": "Autoutilaj",
    "stop_desc": "",
    "stop_lat": 44.483265,
    "stop_lon": 26.17393,
    "location_type": "",
    "platform_code": "",
    "parent_station": "",
    "level_id": ""
  },
  {
    "stop_id": "PV1_349",
    "stop_name": "Autoutilaj",
    "stop_desc": "",
    "stop_lat": 44.48338,
    "stop_lon": 26.17376,
    "location_type": "",
    "platform_code": "",
    "parent_station": "",
    "level_id": ""
  },
  {
    "stop_id": "PV1_147",
    "stop_name": "Aventura Parc",
    "stop_desc": "",
    "stop_lat": 44.431118,
    "stop_lon": 26.272211,
    "location_type": "",
    "platform_code": "",
    "parent_station": "",
    "level_id": ""
  },
  {
    "stop_id": "PV1_174",
    "stop_name": "Aventura Parc",
    "stop_desc": "",
    "stop_lat": 44.43077,
    "stop_lon": 26.272524,
    "location_type": "",
    "platform_code": "",
    "parent_station": "",
    "level_id": ""
  },
  {
    "stop_id": 3131,
    "stop_name": "Aviator Popisteanu",
    "stop_desc": "Bd. Ion Mihalache, Bucuresti",
    "stop_lat": 44.46869,
    "stop_lon": 26.059292,
    "location_type": "",
    "platform_code": "",
    "parent_station": "",
    "level_id": ""
  },
  {
    "stop_id": 3133,
    "stop_name": "Aviator Popisteanu",
    "stop_desc": "Bd. Ion Mihalache, Bucuresti",
    "stop_lat": 44.468845,
    "stop_lon": 26.058819,
    "location_type": "",
    "platform_code": "",
    "parent_station": "",
    "level_id": ""
  },
  {
    "stop_id": 6597,
    "stop_name": "Aviator Popisteanu",
    "stop_desc": "Bd. Ion Mihalache, Bucuresti",
    "stop_lat": 44.468327,
    "stop_lon": 26.059938,
    "location_type": "",
    "platform_code": "",
    "parent_station": "",
    "level_id": ""
  },
  {
    "stop_id": 6846,
    "stop_name": "Aviator Popisteanu",
    "stop_desc": "Bd. Ion Mihalache, Bucuresti",
    "stop_lat": 44.46929,
    "stop_lon": 26.057974,
    "location_type": "",
    "platform_code": "",
    "parent_station": "",
    "level_id": ""
  },
  {
    "stop_id": 6987,
    "stop_name": "Aviator Popisteanu",
    "stop_desc": "Str. Av.Popisteanu, Bucuresti",
    "stop_lat": 44.469177,
    "stop_lon": 26.059296,
    "location_type": "",
    "platform_code": "",
    "parent_station": "",
    "level_id": ""
  },
  {
    "stop_id": 14722,
    "stop_name": "Aviatorilor",
    "stop_desc": "",
    "stop_lat": 44.46711,
    "stop_lon": 26.08639,
    "location_type": 1,
    "platform_code": "",
    "parent_station": "",
    "level_id": ""
  },
  {
    "stop_id": "14722R",
    "stop_name": "Aviatorilor",
    "stop_desc": "",
    "stop_lat": 44.46711,
    "stop_lon": 26.08639,
    "location_type": "",
    "platform_code": 2,
    "parent_station": 14722,
    "level_id": 0
  },
  {
    "stop_id": "14722T",
    "stop_name": "Aviatorilor",
    "stop_desc": "",
    "stop_lat": 44.46711,
    "stop_lon": 26.08639,
    "location_type": "",
    "platform_code": 1,
    "parent_station": 14722,
    "level_id": 0
  },
  {
    "stop_id": "PV1_3481",
    "stop_name": "Avicola",
    "stop_desc": "",
    "stop_lat": 44.46287,
    "stop_lon": 26.211472,
    "location_type": "",
    "platform_code": "",
    "parent_station": "",
    "level_id": ""
  },
  {
    "stop_id": "PV1_105",
    "stop_name": "Avram Iancu",
    "stop_desc": "",
    "stop_lat": 44.549538,
    "stop_lon": 26.135397,
    "location_type": "",
    "platform_code": "",
    "parent_station": "",
    "level_id": ""
  },
  {
    "stop_id": "PV1_200",
    "stop_name": "Avram Iancu",
    "stop_desc": "",
    "stop_lat": 44.49004,
    "stop_lon": 26.16995,
    "location_type": "",
    "platform_code": "",
    "parent_station": "",
    "level_id": ""
  },
  {
    "stop_id": "PV1_25",
    "stop_name": "Avram Iancu",
    "stop_desc": "",
    "stop_lat": 44.5495,
    "stop_lon": 26.135971,
    "location_type": "",
    "platform_code": "",
    "parent_station": "",
    "level_id": ""
  },
  {
    "stop_id": "PV1_270",
    "stop_name": "Avram Iancu",
    "stop_desc": "",
    "stop_lat": 44.488876,
    "stop_lon": 26.168768,
    "location_type": "",
    "platform_code": "",
    "parent_station": "",
    "level_id": ""
  },
  {
    "stop_id": 3722,
    "stop_name": "Avrig",
    "stop_desc": "Bd. Ferdinand, Bucuresti",
    "stop_lat": 44.44541,
    "stop_lon": 26.133007,
    "location_type": "",
    "platform_code": "",
    "parent_station": "",
    "level_id": ""
  },
  {
    "stop_id": 3134,
    "stop_name": "Baba Novac",
    "stop_desc": "Sos. Mihai Bravu, Bucuresti",
    "stop_lat": 44.42508,
    "stop_lon": 26.13751,
    "location_type": "",
    "platform_code": "",
    "parent_station": "",
    "level_id": ""
  },
  {
    "stop_id": 3399,
    "stop_name": "Baba Novac",
    "stop_desc": "Sos. Mihai Bravu, Bucuresti",
    "stop_lat": 44.424908,
    "stop_lon": 26.137447,
    "location_type": "",
    "platform_code": "",
    "parent_station": "",
    "level_id": ""
  },
  {
    "stop_id": 6373,
    "stop_name": "Baba Novac",
    "stop_desc": "Sos. Mihai Bravu, Bucuresti",
    "stop_lat": 44.42553,
    "stop_lon": 26.13735,
    "location_type": "",
    "platform_code": "",
    "parent_station": "",
    "level_id": ""
  },
  {
    "stop_id": 6710,
    "stop_name": "Baba Novac",
    "stop_desc": "Str. Baba Novac, Bucuresti",
    "stop_lat": 44.424232,
    "stop_lon": 26.13839,
    "location_type": "",
    "platform_code": "",
    "parent_station": "",
    "level_id": ""
  },
  {
    "stop_id": 7194,
    "stop_name": "Baboi",
    "stop_desc": "Sos. T. Vladimirescu-Domnesti, Ilfov",
    "stop_lat": 44.398415,
    "stop_lon": 25.918903,
    "location_type": "",
    "platform_code": "",
    "parent_station": "",
    "level_id": ""
  },
  {
    "stop_id": 6767,
    "stop_name": "Bacau",
    "stop_desc": "Str. Bacau, Bucuresti",
    "stop_lat": 44.39271,
    "stop_lon": 26.069906,
    "location_type": "",
    "platform_code": "",
    "parent_station": "",
    "level_id": ""
  },
  {
    "stop_id": 6786,
    "stop_name": "Bacau",
    "stop_desc": "Sos. Salaj, Bucuresti",
    "stop_lat": 44.393085,
    "stop_lon": 26.065912,
    "location_type": "",
    "platform_code": "",
    "parent_station": "",
    "level_id": ""
  },
  {
    "stop_id": 3625,
    "stop_name": "Baciului",
    "stop_desc": "Str. Zetarilor, Bucuresti",
    "stop_lat": 44.38404,
    "stop_lon": 26.08109,
    "location_type": "",
    "platform_code": "",
    "parent_station": "",
    "level_id": ""
  },
  {
    "stop_id": 3626,
    "stop_name": "Baciului",
    "stop_desc": "Str. Zetarilor, Bucuresti",
    "stop_lat": 44.383835,
    "stop_lon": 26.08142,
    "location_type": "",
    "platform_code": "",
    "parent_station": "",
    "level_id": ""
  },
  {
    "stop_id": 6031,
    "stop_name": "Baciului",
    "stop_desc": "Str. Zetarilor, Bucuresti",
    "stop_lat": 44.38365,
    "stop_lon": 26.081545,
    "location_type": "",
    "platform_code": "",
    "parent_station": "",
    "level_id": ""
  },
  {
    "stop_id": 6035,
    "stop_name": "Baciului",
    "stop_desc": "Str. Zetarilor, Bucuresti",
    "stop_lat": 44.384384,
    "stop_lon": 26.080816,
    "location_type": "",
    "platform_code": "",
    "parent_station": "",
    "level_id": ""
  },
  {
    "stop_id": 3301,
    "stop_name": "Baia de Arama",
    "stop_desc": "Bd. Basarabia, Bucuresti",
    "stop_lat": 44.436028,
    "stop_lon": 26.16418,
    "location_type": "",
    "platform_code": "",
    "parent_station": "",
    "level_id": ""
  },
  {
    "stop_id": 3313,
    "stop_name": "Baia de Arama",
    "stop_desc": "Bd. Basarabia, Bucuresti",
    "stop_lat": 44.435932,
    "stop_lon": 26.164082,
    "location_type": "",
    "platform_code": "",
    "parent_station": "",
    "level_id": ""
  },
  {
    "stop_id": 7414,
    "stop_name": "Baia de Arama",
    "stop_desc": "Bd. Basarabia, Bucuresti",
    "stop_lat": 44.435993,
    "stop_lon": 26.163843,
    "location_type": "",
    "platform_code": "",
    "parent_station": "",
    "level_id": ""
  },
  {
    "stop_id": 7473,
    "stop_name": "Baia de Arama",
    "stop_desc": "Bd. Basarabia, Bucuresti",
    "stop_lat": 44.436043,
    "stop_lon": 26.164585,
    "location_type": "",
    "platform_code": "",
    "parent_station": "",
    "level_id": ""
  },
  {
    "stop_id": 3365,
    "stop_name": "Baicului",
    "stop_desc": "Sos. Pantelimon, Bucuresti",
    "stop_lat": 44.444283,
    "stop_lon": 26.143251,
    "location_type": "",
    "platform_code": "",
    "parent_station": "",
    "level_id": ""
  },
  {
    "stop_id": 3844,
    "stop_name": "Baicului",
    "stop_desc": "Bd. Garii Obor, Bucuresti",
    "stop_lat": 44.447365,
    "stop_lon": 26.142809,
    "location_type": "",
    "platform_code": "",
    "parent_station": "",
    "level_id": ""
  },
  {
    "stop_id": 3884,
    "stop_name": "Baicului",
    "stop_desc": "Bd. Garii Obor, Bucuresti",
    "stop_lat": 44.4474,
    "stop_lon": 26.143082,
    "location_type": "",
    "platform_code": "",
    "parent_station": "",
    "level_id": ""
  },
  {
    "stop_id": 7618,
    "stop_name": "Baicului",
    "stop_desc": "Sos. Pantelimon, Bucuresti",
    "stop_lat": 44.444115,
    "stop_lon": 26.143826,
    "location_type": "",
    "platform_code": "",
    "parent_station": "",
    "level_id": ""
  },
  {
    "stop_id": 7651,
    "stop_name": "Baicului",
    "stop_desc": "Sos. Pantelimon, Bucuresti",
    "stop_lat": 44.444435,
    "stop_lon": 26.142502,
    "location_type": "",
    "platform_code": "",
    "parent_station": "",
    "level_id": ""
  },
  {
    "stop_id": 3758,
    "stop_name": "Balotului",
    "stop_desc": "Str. Sportului, Bucuresti",
    "stop_lat": 44.46885,
    "stop_lon": 26.153284,
    "location_type": "",
    "platform_code": "",
    "parent_station": "",
    "level_id": ""
  },
  {
    "stop_id": 3807,
    "stop_name": "Balotului",
    "stop_desc": "Str. Sportului, Bucuresti",
    "stop_lat": 44.468327,
    "stop_lon": 26.153965,
    "location_type": "",
    "platform_code": "",
    "parent_station": "",
    "level_id": ""
  },
  {
    "stop_id": "PV1_5130",
    "stop_name": "Balta Neagra",
    "stop_desc": "",
    "stop_lat": 44.69804,
    "stop_lon": 26.30695,
    "location_type": "",
    "platform_code": "",
    "parent_station": "",
    "level_id": ""
  },
  {
    "stop_id": "PV1_5131",
    "stop_name": "Balta Neagra",
    "stop_desc": "",
    "stop_lat": 44.69803,
    "stop_lon": 26.30651,
    "location_type": "",
    "platform_code": "",
    "parent_station": "",
    "level_id": ""
  },
  {
    "stop_id": "PV1_536",
    "stop_name": "Balta Pasarea",
    "stop_desc": "",
    "stop_lat": 44.553123,
    "stop_lon": 26.143291,
    "location_type": "",
    "platform_code": "",
    "parent_station": "",
    "level_id": ""
  },
  {
    "stop_id": "PV1_565",
    "stop_name": "Balta Pasarea",
    "stop_desc": "",
    "stop_lat": 44.552944,
    "stop_lon": 26.143387,
    "location_type": "",
    "platform_code": "",
    "parent_station": "",
    "level_id": ""
  },
  {
    "stop_id": 3173,
    "stop_name": "Barajul Dunarii",
    "stop_desc": "Str. Liviu Rebreanu, Bucuresti",
    "stop_lat": 44.424934,
    "stop_lon": 26.170399,
    "location_type": "",
    "platform_code": "",
    "parent_station": "",
    "level_id": ""
  },
  {
    "stop_id": 3458,
    "stop_name": "Barajul Dunarii",
    "stop_desc": "Str. Liviu Rebreanu, Bucuresti",
    "stop_lat": 44.424835,
    "stop_lon": 26.170818,
    "location_type": "",
    "platform_code": "",
    "parent_station": "",
    "level_id": ""
  },
  {
    "stop_id": 5973,
    "stop_name": "Barajul Dunarii",
    "stop_desc": "Str. Liviu Rebreanu, Bucuresti",
    "stop_lat": 44.424583,
    "stop_lon": 26.171888,
    "location_type": "",
    "platform_code": "",
    "parent_station": "",
    "level_id": ""
  },
  {
    "stop_id": 5978,
    "stop_name": "Barajul Dunarii",
    "stop_desc": "Str. Liviu Rebreanu, Bucuresti",
    "stop_lat": 44.42518,
    "stop_lon": 26.16934,
    "location_type": "",
    "platform_code": "",
    "parent_station": "",
    "level_id": ""
  },
  {
    "stop_id": 3275,
    "stop_name": "Barajul Iezeru",
    "stop_desc": "Bd. 1 Decembrie 1918, Bucuresti",
    "stop_lat": 44.432533,
    "stop_lon": 26.172651,
    "location_type": "",
    "platform_code": "",
    "parent_station": "",
    "level_id": ""
  },
  {
    "stop_id": 3282,
    "stop_name": "Barajul Iezeru",
    "stop_desc": "Bd. 1 Decembrie 1918, Bucuresti",
    "stop_lat": 44.43288,
    "stop_lon": 26.172476,
    "location_type": "",
    "platform_code": "",
    "parent_station": "",
    "level_id": ""
  },
  {
    "stop_id": 7444,
    "stop_name": "Barajul Iezerul",
    "stop_desc": "Bd. 1 Decembrie 1918, Bucuresti",
    "stop_lat": 44.432175,
    "stop_lon": 26.172844,
    "location_type": "",
    "platform_code": "",
    "parent_station": "",
    "level_id": ""
  },
  {
    "stop_id": 7448,
    "stop_name": "Barajul Iezerul",
    "stop_desc": "Bd. 1 Decembrie 1918, Bucuresti",
    "stop_lat": 44.432888,
    "stop_lon": 26.172426,
    "location_type": "",
    "platform_code": "",
    "parent_station": "",
    "level_id": ""
  },
  {
    "stop_id": 3279,
    "stop_name": "Barajul Rovinari",
    "stop_desc": "Bd. 1 Decembrie 1918, Bucuresti",
    "stop_lat": 44.430202,
    "stop_lon": 26.173483,
    "location_type": "",
    "platform_code": "",
    "parent_station": "",
    "level_id": ""
  },
  {
    "stop_id": 3283,
    "stop_name": "Barajul Rovinari",
    "stop_desc": "Bd. 1 Decembrie 1918, Bucuresti",
    "stop_lat": 44.430347,
    "stop_lon": 26.173367,
    "location_type": "",
    "platform_code": "",
    "parent_station": "",
    "level_id": ""
  },
  {
    "stop_id": 9376,
    "stop_name": "Barajul Rovinari",
    "stop_desc": "Bd. 1 Decembrie 1918, Bucuresti",
    "stop_lat": 44.430477,
    "stop_lon": 26.17327,
    "location_type": "",
    "platform_code": "",
    "parent_station": "",
    "level_id": ""
  },
  {
    "stop_id": 10998,
    "stop_name": "Barajului",
    "stop_desc": "Str. Gheorghita Stanciu, Ilfov",
    "stop_lat": 44.333675,
    "stop_lon": 25.947191,
    "location_type": "",
    "platform_code": "",
    "parent_station": "",
    "level_id": ""
  },
  {
    "stop_id": 10999,
    "stop_name": "Barajului",
    "stop_desc": "Str. Gheorghita Stanciu, Ilfov",
    "stop_lat": 44.33375,
    "stop_lon": 25.946535,
    "location_type": "",
    "platform_code": "",
    "parent_station": "",
    "level_id": ""
  },
  {
    "stop_id": 8683,
    "stop_name": "Barbu Lautaru",
    "stop_desc": "DJ 602, Ilfov",
    "stop_lat": 44.42048,
    "stop_lon": 25.877277,
    "location_type": "",
    "platform_code": "",
    "parent_station": "",
    "level_id": ""
  },
  {
    "stop_id": 8684,
    "stop_name": "Barbu Lautaru",
    "stop_desc": "DJ 602, Ilfov",
    "stop_lat": 44.420483,
    "stop_lon": 25.877544,
    "location_type": "",
    "platform_code": "",
    "parent_station": "",
    "level_id": ""
  },
  {
    "stop_id": 10988,
    "stop_name": "Barbu Vacarescu",
    "stop_desc": "Sos. Fabrica de Glucoza, Bucuresti",
    "stop_lat": 44.475643,
    "stop_lon": 26.106323,
    "location_type": "",
    "platform_code": "",
    "parent_station": "",
    "level_id": ""
  },
  {
    "stop_id": 10989,
    "stop_name": "Barbu Vacarescu",
    "stop_desc": "Sos. Fabrica de Glucoza, Bucuresti",
    "stop_lat": 44.475563,
    "stop_lon": 26.108145,
    "location_type": "",
    "platform_code": "",
    "parent_station": "",
    "level_id": ""
  },
  {
    "stop_id": 12097,
    "stop_name": "Barbu Vacarescu",
    "stop_desc": "Str. Barbu Vacarescu, Bucuresti",
    "stop_lat": 44.45349,
    "stop_lon": 26.104958,
    "location_type": "",
    "platform_code": "",
    "parent_station": "",
    "level_id": ""
  },
  {
    "stop_id": 6235,
    "stop_name": "Barbu Vacarescu",
    "stop_desc": "Sos. Pipera, Bucuresti",
    "stop_lat": 44.480724,
    "stop_lon": 26.104233,
    "location_type": "",
    "platform_code": "",
    "parent_station": "",
    "level_id": ""
  },
  {
    "stop_id": 6243,
    "stop_name": "Barbu Vacarescu",
    "stop_desc": "Sos. Pipera, Bucuresti",
    "stop_lat": 44.48097,
    "stop_lon": 26.104187,
    "location_type": "",
    "platform_code": "",
    "parent_station": "",
    "level_id": ""
  },
  {
    "stop_id": 6917,
    "stop_name": "Barbu Vacarescu",
    "stop_desc": "Str. Barbu Vacarescu, Bucuresti",
    "stop_lat": 44.464256,
    "stop_lon": 26.108044,
    "location_type": "",
    "platform_code": "",
    "parent_station": "",
    "level_id": ""
  },
  {
    "stop_id": "PV1_1145",
    "stop_name": "Barbu Vacarescu",
    "stop_desc": "",
    "stop_lat": 44.480976,
    "stop_lon": 26.104149,
    "location_type": "",
    "platform_code": "",
    "parent_station": "",
    "level_id": ""
  },
  {
    "stop_id": "PV1_383",
    "stop_name": "Barbu Vacarescu",
    "stop_desc": "",
    "stop_lat": 44.480724,
    "stop_lon": 26.104233,
    "location_type": "",
    "platform_code": "",
    "parent_station": "",
    "level_id": ""
  },
  {
    "stop_id": "PV1_615",
    "stop_name": "Barbu Vacarescu",
    "stop_desc": "",
    "stop_lat": 44.475662,
    "stop_lon": 26.106237,
    "location_type": "",
    "platform_code": "",
    "parent_station": "",
    "level_id": ""
  },
  {
    "stop_id": "PV1_665",
    "stop_name": "Barbu Vacarescu",
    "stop_desc": "",
    "stop_lat": 44.47561,
    "stop_lon": 26.10809,
    "location_type": "",
    "platform_code": "",
    "parent_station": "",
    "level_id": ""
  },
  {
    "stop_id": "PV1_198",
    "stop_name": "Bariera Cfr",
    "stop_desc": "",
    "stop_lat": 44.482544,
    "stop_lon": 26.163097,
    "location_type": "",
    "platform_code": "",
    "parent_station": "",
    "level_id": ""
  },
  {
    "stop_id": "PV1_222",
    "stop_name": "Bariera Cfr",
    "stop_desc": "",
    "stop_lat": 44.637436,
    "stop_lon": 26.223164,
    "location_type": "",
    "platform_code": "",
    "parent_station": "",
    "level_id": ""
  },
  {
    "stop_id": "PV1_248",
    "stop_name": "Bariera Cfr",
    "stop_desc": "",
    "stop_lat": 44.636963,
    "stop_lon": 26.222973,
    "location_type": "",
    "platform_code": "",
    "parent_station": "",
    "level_id": ""
  },
  {
    "stop_id": "PV1_272",
    "stop_name": "Bariera Cfr",
    "stop_desc": "",
    "stop_lat": 44.48207,
    "stop_lon": 26.162579,
    "location_type": "",
    "platform_code": "",
    "parent_station": "",
    "level_id": ""
  },
  {
    "stop_id": 14704,
    "stop_name": "Basarab",
    "stop_desc": "",
    "stop_lat": 44.44998,
    "stop_lon": 26.06809,
    "location_type": 1,
    "platform_code": "",
    "parent_station": "",
    "level_id": ""
  },
  {
    "stop_id": "14704R",
    "stop_name": "Basarab 1 (M1)",
    "stop_desc": "",
    "stop_lat": 44.44998,
    "stop_lon": 26.06809,
    "location_type": "",
    "platform_code": 2,
    "parent_station": 14704,
    "level_id": 0
  },
  {
    "stop_id": "14704T",
    "stop_name": "Basarab 1 (M1)",
    "stop_desc": "",
    "stop_lat": 44.44998,
    "stop_lon": 26.06809,
    "location_type": "",
    "platform_code": 1,
    "parent_station": 14704,
    "level_id": 0
  },
  {
    "stop_id": "14743R",
    "stop_name": "Basarab 2 (M4)",
    "stop_desc": "",
    "stop_lat": 44.45039,
    "stop_lon": 26.06885,
    "location_type": "",
    "platform_code": 4,
    "parent_station": 14704,
    "level_id": 0
  },
  {
    "stop_id": "14743T",
    "stop_name": "Basarab 2 (M4)",
    "stop_desc": "",
    "stop_lat": 44.45039,
    "stop_lon": 26.06885,
    "location_type": "",
    "platform_code": 3,
    "parent_station": 14704,
    "level_id": 0
  },
  {
    "stop_id": 6252,
    "stop_name": "Bascov",
    "stop_desc": "Drumul Cooperativei, Bucuresti",
    "stop_lat": 44.40867,
    "stop_lon": 26.025972,
    "location_type": "",
    "platform_code": "",
    "parent_station": "",
    "level_id": ""
  },
  {
    "stop_id": 6253,
    "stop_name": "Bascov",
    "stop_desc": "Drumul Cooperativei, Bucuresti",
    "stop_lat": 44.40982,
    "stop_lon": 26.027184,
    "location_type": "",
    "platform_code": "",
    "parent_station": "",
    "level_id": ""
  },
  {
    "stop_id": "PV1_370",
    "stop_name": "Batal",
    "stop_desc": "",
    "stop_lat": 44.519867,
    "stop_lon": 26.275213,
    "location_type": "",
    "platform_code": "",
    "parent_station": "",
    "level_id": ""
  },
  {
    "stop_id": "PV1_375",
    "stop_name": "Batal",
    "stop_desc": "",
    "stop_lat": 44.520092,
    "stop_lon": 26.274609,
    "location_type": "",
    "platform_code": "",
    "parent_station": "",
    "level_id": ""
  },
  {
    "stop_id": 3122,
    "stop_name": "Batistei",
    "stop_desc": "Str. Vasile Lascar, Bucuresti",
    "stop_lat": 44.440464,
    "stop_lon": 26.10867,
    "location_type": "",
    "platform_code": "",
    "parent_station": "",
    "level_id": ""
  },
  {
    "stop_id": 3195,
    "stop_name": "Batistei",
    "stop_desc": "Str. Vasile Lascar, Bucuresti",
    "stop_lat": 44.439884,
    "stop_lon": 26.108757,
    "location_type": "",
    "platform_code": "",
    "parent_station": "",
    "level_id": ""
  },
  {
    "stop_id": 6263,
    "stop_name": "Batistei",
    "stop_desc": "Str. Armand Calinescu, Bucuresti",
    "stop_lat": 44.43988,
    "stop_lon": 26.108767,
    "location_type": "",
    "platform_code": "",
    "parent_station": "",
    "level_id": ""
  },
  {
    "stop_id": "PV1_206",
    "stop_name": "Baza De Aprovizionare",
    "stop_desc": "",
    "stop_lat": 44.519325,
    "stop_lon": 26.19325,
    "location_type": "",
    "platform_code": "",
    "parent_station": "",
    "level_id": ""
  },
  {
    "stop_id": "PV1_264",
    "stop_name": "Baza De Aprovizionare",
    "stop_desc": "",
    "stop_lat": 44.519318,
    "stop_lon": 26.193151,
    "location_type": "",
    "platform_code": "",
    "parent_station": "",
    "level_id": ""
  },
  {
    "stop_id": 8525,
    "stop_name": "Baza Sportiva",
    "stop_desc": "Str. Antim Irvireanu, Ilfov",
    "stop_lat": 44.737335,
    "stop_lon": 26.16984,
    "location_type": "",
    "platform_code": "",
    "parent_station": "",
    "level_id": ""
  },
  {
    "stop_id": 8537,
    "stop_name": "Baza Sportiva",
    "stop_desc": "Str. Antim Irvireanu, Ilfov",
    "stop_lat": 44.73732,
    "stop_lon": 26.16924,
    "location_type": "",
    "platform_code": "",
    "parent_station": "",
    "level_id": ""
  },
  {
    "stop_id": 12222,
    "stop_name": "Bd. 1 Decembrie 1918",
    "stop_desc": "Str. Liviu Rebreanu, Bucuresti",
    "stop_lat": 44.4232,
    "stop_lon": 26.178432,
    "location_type": "",
    "platform_code": "",
    "parent_station": "",
    "level_id": ""
  },
  {
    "stop_id": 3169,
    "stop_name": "Bd. 1 Decembrie 1918",
    "stop_desc": "Bd. Th.Pallady, Bucuresti",
    "stop_lat": 44.410683,
    "stop_lon": 26.17378,
    "location_type": "",
    "platform_code": "",
    "parent_station": "",
    "level_id": ""
  },
  {
    "stop_id": 3218,
    "stop_name": "Bd. 1 Decembrie 1918",
    "stop_desc": "Bd. Th.Pallady, Bucuresti",
    "stop_lat": 44.410816,
    "stop_lon": 26.173105,
    "location_type": "",
    "platform_code": "",
    "parent_station": "",
    "level_id": ""
  },
  {
    "stop_id": 3329,
    "stop_name": "Bd. 1 Decembrie 1918",
    "stop_desc": "Bd. Basarabia, Bucuresti",
    "stop_lat": 44.436253,
    "stop_lon": 26.173384,
    "location_type": "",
    "platform_code": "",
    "parent_station": "",
    "level_id": ""
  },
  {
    "stop_id": 3360,
    "stop_name": "Bd. 1 Decembrie 1918",
    "stop_desc": "Bd. Basarabia, Bucuresti",
    "stop_lat": 44.436413,
    "stop_lon": 26.172436,
    "location_type": "",
    "platform_code": "",
    "parent_station": "",
    "level_id": ""
  },
  {
    "stop_id": 3456,
    "stop_name": "Bd. 1 Decembrie 1918",
    "stop_desc": "Str. Liviu Rebreanu, Bucuresti",
    "stop_lat": 44.42381,
    "stop_lon": 26.176111,
    "location_type": "",
    "platform_code": "",
    "parent_station": "",
    "level_id": ""
  },
  {
    "stop_id": 6604,
    "stop_name": "Bd. 1 Decembrie 1918",
    "stop_desc": "Bd. Basarabia, Bucuresti",
    "stop_lat": 44.436028,
    "stop_lon": 26.173857,
    "location_type": "",
    "platform_code": "",
    "parent_station": "",
    "level_id": ""
  },
  {
    "stop_id": 6651,
    "stop_name": "Bd. 1 Decembrie 1918",
    "stop_desc": "Bd. Basarabia, Bucuresti",
    "stop_lat": 44.43653,
    "stop_lon": 26.172272,
    "location_type": "",
    "platform_code": "",
    "parent_station": "",
    "level_id": ""
  },
  {
    "stop_id": 6678,
    "stop_name": "Bd. 1 Decembrie 1918",
    "stop_desc": "Bd. Th.Pallady, Bucuresti",
    "stop_lat": 44.411095,
    "stop_lon": 26.172075,
    "location_type": "",
    "platform_code": "",
    "parent_station": "",
    "level_id": ""
  },
  {
    "stop_id": 6896,
    "stop_name": "Bd. 1 Decembrie 1918",
    "stop_desc": "Bd. Th.Pallady, Bucuresti",
    "stop_lat": 44.410553,
    "stop_lon": 26.173695,
    "location_type": "",
    "platform_code": "",
    "parent_station": "",
    "level_id": ""
  },
  {
    "stop_id": 7554,
    "stop_name": "Bd. 1 Decembrie 1918",
    "stop_desc": "Bd. 1 Decembrie 1918, Bucuresti",
    "stop_lat": 44.41862,
    "stop_lon": 26.176031,
    "location_type": "",
    "platform_code": "",
    "parent_station": "",
    "level_id": ""
  },
  {
    "stop_id": 7603,
    "stop_name": "Bd. 1 Decembrie 1918",
    "stop_desc": "Bd. 1 Decembrie 1918, Bucuresti",
    "stop_lat": 44.41799,
    "stop_lon": 26.176306,
    "location_type": "",
    "platform_code": "",
    "parent_station": "",
    "level_id": ""
  },
  {
    "stop_id": 9374,
    "stop_name": "Bd. 1 Decembrie 1918",
    "stop_desc": "Bd. 1 Decembrie 1918, Bucuresti",
    "stop_lat": 44.434807,
    "stop_lon": 26.172215,
    "location_type": "",
    "platform_code": "",
    "parent_station": "",
    "level_id": ""
  },
  {
    "stop_id": "PV1_629",
    "stop_name": "Bd. 1 Decembrie 1918",
    "stop_desc": "",
    "stop_lat": 44.436043,
    "stop_lon": 26.173872,
    "location_type": "",
    "platform_code": "",
    "parent_station": "",
    "level_id": ""
  },
  {
    "stop_id": "PV1_633",
    "stop_name": "Bd. 1 Decembrie 1918",
    "stop_desc": "",
    "stop_lat": 44.43655,
    "stop_lon": 26.172281,
    "location_type": "",
    "platform_code": "",
    "parent_station": "",
    "level_id": ""
  },
  {
    "stop_id": 12021,
    "stop_name": "Bd. Abatorului",
    "stop_desc": "Spl. Unirii, Bucuresti",
    "stop_lat": 44.41136,
    "stop_lon": 26.119305,
    "location_type": "",
    "platform_code": "",
    "parent_station": "",
    "level_id": ""
  },
  {
    "stop_id": 5955,
    "stop_name": "Bd. Abatorului",
    "stop_desc": "Calea Vacaresti, Bucuresti",
    "stop_lat": 44.409756,
    "stop_lon": 26.116695,
    "location_type": "",
    "platform_code": "",
    "parent_station": "",
    "level_id": ""
  },
  {
    "stop_id": 7338,
    "stop_name": "Bd. Abatorului",
    "stop_desc": "Calea Vacaresti, Bucuresti",
    "stop_lat": 44.410213,
    "stop_lon": 26.116112,
    "location_type": "",
    "platform_code": "",
    "parent_station": "",
    "level_id": ""
  },
  {
    "stop_id": 3702,
    "stop_name": "Bd. Alexandru Ioan Cuza",
    "stop_desc": "Bd. Gh.Duca, Bucuresti",
    "stop_lat": 44.449657,
    "stop_lon": 26.078367,
    "location_type": "",
    "platform_code": "",
    "parent_station": "",
    "level_id": ""
  },
  {
    "stop_id": 3664,
    "stop_name": "Bd. Alexandru Obregia",
    "stop_desc": "Bd. Alex. Obregia, Bucuresti",
    "stop_lat": 44.388,
    "stop_lon": 26.117487,
    "location_type": "",
    "platform_code": "",
    "parent_station": "",
    "level_id": ""
  },
  {
    "stop_id": 3672,
    "stop_name": "Bd. Alexandru Obregia",
    "stop_desc": "Str. Turnu Magurele, Bucuresti",
    "stop_lat": 44.376835,
    "stop_lon": 26.121006,
    "location_type": "",
    "platform_code": "",
    "parent_station": "",
    "level_id": ""
  },
  {
    "stop_id": 3775,
    "stop_name": "Bd. Alexandru Obregia",
    "stop_desc": "Str. Serg.Nitu Vasile, Bucuresti",
    "stop_lat": 44.38858,
    "stop_lon": 26.1163,
    "location_type": "",
    "platform_code": "",
    "parent_station": "",
    "level_id": ""
  },
  {
    "stop_id": 3779,
    "stop_name": "Bd. Alexandru Obregia",
    "stop_desc": "Str. Serg.Nitu Vasile, Bucuresti",
    "stop_lat": 44.38862,
    "stop_lon": 26.11666,
    "location_type": "",
    "platform_code": "",
    "parent_station": "",
    "level_id": ""
  },
  {
    "stop_id": 7487,
    "stop_name": "Bd. Alexandru Obregia",
    "stop_desc": "Str. Turnu Magurele, Bucuresti",
    "stop_lat": 44.37654,
    "stop_lon": 26.119055,
    "location_type": "",
    "platform_code": "",
    "parent_station": "",
    "level_id": ""
  },
  {
    "stop_id": 6582,
    "stop_name": "Bd. Anul 1864",
    "stop_desc": "Str.Paralutelor, Bucuresti",
    "stop_lat": 44.43807,
    "stop_lon": 26.009237,
    "location_type": "",
    "platform_code": "",
    "parent_station": "",
    "level_id": ""
  },
  {
    "stop_id": 7313,
    "stop_name": "Bd. Apicultorilor",
    "stop_desc": "Sos. Gh.Ionescu Sisesti, Bucuresti",
    "stop_lat": 44.502193,
    "stop_lon": 26.05921,
    "location_type": "",
    "platform_code": "",
    "parent_station": "",
    "level_id": ""
  },
  {
    "stop_id": 7316,
    "stop_name": "Bd. Apicultorilor",
    "stop_desc": "Sos. Gh.Ionescu Sisesti, Bucuresti",
    "stop_lat": 44.501987,
    "stop_lon": 26.059935,
    "location_type": "",
    "platform_code": "",
    "parent_station": "",
    "level_id": ""
  },
  {
    "stop_id": 5928,
    "stop_name": "Bd. B.P.Hasdeu",
    "stop_desc": "Bd. Hasdeu, Bucuresti",
    "stop_lat": 44.430904,
    "stop_lon": 26.083971,
    "location_type": "",
    "platform_code": "",
    "parent_station": "",
    "level_id": ""
  },
  {
    "stop_id": 3443,
    "stop_name": "Bd. Banu Manta",
    "stop_desc": "Sos. N.Titulescu, Bucuresti",
    "stop_lat": 44.452923,
    "stop_lon": 26.07442,
    "location_type": "",
    "platform_code": "",
    "parent_station": "",
    "level_id": ""
  },
  {
    "stop_id": 3464,
    "stop_name": "Bd. Banu Manta",
    "stop_desc": "Sos. N.Titulescu, Bucuresti",
    "stop_lat": 44.4527,
    "stop_lon": 26.07395,
    "location_type": "",
    "platform_code": "",
    "parent_station": "",
    "level_id": ""
  },
  {
    "stop_id": 3515,
    "stop_name": "Bd. Banu Manta",
    "stop_desc": "Sos. N.Titulescu, Bucuresti",
    "stop_lat": 44.45261,
    "stop_lon": 26.074274,
    "location_type": "",
    "platform_code": "",
    "parent_station": "",
    "level_id": ""
  },
  {
    "stop_id": 6209,
    "stop_name": "Bd. Banu Manta",
    "stop_desc": "Bd. Ion Mihalache, Bucuresti",
    "stop_lat": 44.455498,
    "stop_lon": 26.080873,
    "location_type": "",
    "platform_code": "",
    "parent_station": "",
    "level_id": ""
  },
  {
    "stop_id": 6211,
    "stop_name": "Bd. Banu Manta",
    "stop_desc": "Bd. Ion Mihalache, Bucuresti",
    "stop_lat": 44.455486,
    "stop_lon": 26.080666,
    "location_type": "",
    "platform_code": "",
    "parent_station": "",
    "level_id": ""
  },
  {
    "stop_id": 6347,
    "stop_name": "Bd. Banu Manta",
    "stop_desc": "Bd. Banu Manta, Bucuresti",
    "stop_lat": 44.45593,
    "stop_lon": 26.079304,
    "location_type": "",
    "platform_code": "",
    "parent_station": "",
    "level_id": ""
  },
  {
    "stop_id": 6921,
    "stop_name": "Bd. Banu Manta",
    "stop_desc": "Sos. N.Titulescu, Bucuresti",
    "stop_lat": 44.452763,
    "stop_lon": 26.07409,
    "location_type": "",
    "platform_code": "",
    "parent_station": "",
    "level_id": ""
  },
  {
    "stop_id": 6922,
    "stop_name": "Bd. Banu Manta",
    "stop_desc": "Sos. N.Titulescu, Bucuresti",
    "stop_lat": 44.452457,
    "stop_lon": 26.074535,
    "location_type": "",
    "platform_code": "",
    "parent_station": "",
    "level_id": ""
  },
  {
    "stop_id": 3276,
    "stop_name": "Bd. Basarabia",
    "stop_desc": "Bd. 1 Decembrie 1918, Bucuresti",
    "stop_lat": 44.435986,
    "stop_lon": 26.17288,
    "location_type": "",
    "platform_code": "",
    "parent_station": "",
    "level_id": ""
  },
  {
    "stop_id": 3475,
    "stop_name": "Bd. Basarabia",
    "stop_desc": "Bd. Chisinau, Bucuresti",
    "stop_lat": 44.43518,
    "stop_lon": 26.159937,
    "location_type": "",
    "platform_code": "",
    "parent_station": "",
    "level_id": ""
  },
  {
    "stop_id": 3751,
    "stop_name": "Bd. Basarabia",
    "stop_desc": "Str. L.Patrascanu, Bucuresti",
    "stop_lat": 44.435177,
    "stop_lon": 26.169065,
    "location_type": "",
    "platform_code": "",
    "parent_station": "",
    "level_id": ""
  },
  {
    "stop_id": 7560,
    "stop_name": "Bd. Basarabia",
    "stop_desc": "Bd. Chisinau, Bucuresti",
    "stop_lat": 44.435856,
    "stop_lon": 26.159775,
    "location_type": "",
    "platform_code": "",
    "parent_station": "",
    "level_id": ""
  },
  {
    "stop_id": 7602,
    "stop_name": "Bd. Basarabia",
    "stop_desc": "Str. L.Patrascanu, Bucuresti",
    "stop_lat": 44.436386,
    "stop_lon": 26.168825,
    "location_type": "",
    "platform_code": "",
    "parent_station": "",
    "level_id": ""
  },
  {
    "stop_id": 8842,
    "stop_name": "Bd. Basarabia",
    "stop_desc": "Alee terminal Bd. Basarabia, Bucuresti",
    "stop_lat": 44.43613,
    "stop_lon": 26.16954,
    "location_type": "",
    "platform_code": "",
    "parent_station": "",
    "level_id": ""
  },
  {
    "stop_id": "PV1_861",
    "stop_name": "Bd. Basarabia",
    "stop_desc": "",
    "stop_lat": 44.43637,
    "stop_lon": 26.168808,
    "location_type": "",
    "platform_code": "",
    "parent_station": "",
    "level_id": ""
  },
  {
    "stop_id": "PV1_922",
    "stop_name": "Bd. Basarabia",
    "stop_desc": "",
    "stop_lat": 44.43625,
    "stop_lon": 26.169613,
    "location_type": "",
    "platform_code": "",
    "parent_station": "",
    "level_id": ""
  },
  {
    "stop_id": "PV1_158",
    "stop_name": "Bd. Biruintei",
    "stop_desc": "",
    "stop_lat": 44.445766,
    "stop_lon": 26.201763,
    "location_type": "",
    "platform_code": "",
    "parent_station": "",
    "level_id": ""
  },
  {
    "stop_id": "PV1_163",
    "stop_name": "Bd. Biruintei",
    "stop_desc": "",
    "stop_lat": 44.44536,
    "stop_lon": 26.201666,
    "location_type": "",
    "platform_code": "",
    "parent_station": "",
    "level_id": ""
  },
  {
    "stop_id": 3254,
    "stop_name": "Bd. Bucurestii Noi",
    "stop_desc": "Bd. Gloriei, Bucuresti",
    "stop_lat": 44.48393,
    "stop_lon": 26.04122,
    "location_type": "",
    "platform_code": "",
    "parent_station": "",
    "level_id": ""
  },
  {
    "stop_id": 3575,
    "stop_name": "Bd. Bucurestii Noi",
    "stop_desc": "Sos. Chitilei, Bucuresti",
    "stop_lat": 44.4767,
    "stop_lon": 26.045036,
    "location_type": "",
    "platform_code": "",
    "parent_station": "",
    "level_id": ""
  },
  {
    "stop_id": 6872,
    "stop_name": "Bd. Bucurestii Noi",
    "stop_desc": "Str. Jiului, Bucuresti",
    "stop_lat": 44.48363,
    "stop_lon": 26.04158,
    "location_type": "",
    "platform_code": "",
    "parent_station": "",
    "level_id": ""
  },
  {
    "stop_id": 7297,
    "stop_name": "Bd. Bucurestii Noi",
    "stop_desc": "Sos. Chitilei, Bucuresti",
    "stop_lat": 44.47679,
    "stop_lon": 26.043547,
    "location_type": "",
    "platform_code": "",
    "parent_station": "",
    "level_id": ""
  },
  {
    "stop_id": 3124,
    "stop_name": "Bd. Carol I",
    "stop_desc": "Str. Armand Calinescu, Bucuresti",
    "stop_lat": 44.437172,
    "stop_lon": 26.110039,
    "location_type": "",
    "platform_code": "",
    "parent_station": "",
    "level_id": ""
  },
  {
    "stop_id": 3210,
    "stop_name": "Bd. Carol I",
    "stop_desc": "Str. Paleologu, Bucuresti",
    "stop_lat": 44.436775,
    "stop_lon": 26.110378,
    "location_type": "",
    "platform_code": "",
    "parent_station": "",
    "level_id": ""
  },
  {
    "stop_id": 3328,
    "stop_name": "Bd. Carol I",
    "stop_desc": "Calea Mosilor, Bucuresti",
    "stop_lat": 44.438023,
    "stop_lon": 26.114525,
    "location_type": "",
    "platform_code": "",
    "parent_station": "",
    "level_id": ""
  },
  {
    "stop_id": 3342,
    "stop_name": "Bd. Carol I",
    "stop_desc": "Calea Mosilor, Bucuresti",
    "stop_lat": 44.438534,
    "stop_lon": 26.114925,
    "location_type": "",
    "platform_code": "",
    "parent_station": "",
    "level_id": ""
  },
  {
    "stop_id": 3867,
    "stop_name": "Bd. Carol I",
    "stop_desc": "Calea Mosilor, Bucuresti",
    "stop_lat": 44.438755,
    "stop_lon": 26.114887,
    "location_type": "",
    "platform_code": "",
    "parent_station": "",
    "level_id": ""
  },
  {
    "stop_id": 6264,
    "stop_name": "Bd. Carol I",
    "stop_desc": "Str. Paleologu, Bucuresti",
    "stop_lat": 44.436756,
    "stop_lon": 26.110474,
    "location_type": "",
    "platform_code": "",
    "parent_station": "",
    "level_id": ""
  },
  {
    "stop_id": 7507,
    "stop_name": "Bd. Ceahlau",
    "stop_desc": "Sos. Crangasi, Bucuresti",
    "stop_lat": 44.453636,
    "stop_lon": 26.052967,
    "location_type": "",
    "platform_code": "",
    "parent_station": "",
    "level_id": ""
  },
  {
    "stop_id": 7516,
    "stop_name": "Bd. Ceahlau",
    "stop_desc": "Sos. Crangasi, Bucuresti",
    "stop_lat": 44.453686,
    "stop_lon": 26.051289,
    "location_type": "",
    "platform_code": "",
    "parent_station": "",
    "level_id": ""
  },
  {
    "stop_id": 3281,
    "stop_name": "Bd. Chisinau",
    "stop_desc": "Sos. Pantelimon, Bucuresti",
    "stop_lat": 44.442993,
    "stop_lon": 26.156437,
    "location_type": "",
    "platform_code": "",
    "parent_station": "",
    "level_id": ""
  },
  {
    "stop_id": 3615,
    "stop_name": "Bd. Chisinau",
    "stop_desc": "Sos. Pantelimon, Bucuresti",
    "stop_lat": 44.443027,
    "stop_lon": 26.15615,
    "location_type": "",
    "platform_code": "",
    "parent_station": "",
    "level_id": ""
  },
  {
    "stop_id": 6675,
    "stop_name": "Bd. Chisinau",
    "stop_desc": "Bd. Chisinau, Bucuresti",
    "stop_lat": 44.443745,
    "stop_lon": 26.157736,
    "location_type": "",
    "platform_code": "",
    "parent_station": "",
    "level_id": ""
  },
  {
    "stop_id": 6727,
    "stop_name": "Bd. Chisinau",
    "stop_desc": "Sos. Pantelimon, Bucuresti",
    "stop_lat": 44.442623,
    "stop_lon": 26.159885,
    "location_type": "",
    "platform_code": "",
    "parent_station": "",
    "level_id": ""
  },
  {
    "stop_id": 7608,
    "stop_name": "Bd. Chisinau",
    "stop_desc": "Bd. Chisinau, Bucuresti",
    "stop_lat": 44.442028,
    "stop_lon": 26.15722,
    "location_type": "",
    "platform_code": "",
    "parent_station": "",
    "level_id": ""
  },
  {
    "stop_id": 7620,
    "stop_name": "Bd. Chisinau",
    "stop_desc": "Sos. Pantelimon, Bucuresti",
    "stop_lat": 44.44313,
    "stop_lon": 26.156115,
    "location_type": "",
    "platform_code": "",
    "parent_station": "",
    "level_id": ""
  },
  {
    "stop_id": 3198,
    "stop_name": "Bd. Constantin Brancoveanu",
    "stop_desc": "Sos. Oltenitei, Bucuresti",
    "stop_lat": 44.397984,
    "stop_lon": 26.110405,
    "location_type": "",
    "platform_code": "",
    "parent_station": "",
    "level_id": ""
  },